     2.10           OBSERVATION DATA    M (MIXED)           RINEX VERSION / TYPE
RTKCONV 2.4.2                           20220421 192742 UTC PGM / RUN BY / DATE 
log: C:\Users\shubh\Downloads\1_lightUrban_tsimShaTsuiEast  COMMENT             
format: RINEX                                               COMMENT             
Geo++                                                       MARKER NAME         
                                                            MARKER NUMBER       
                                                            OBSERVER / AGENCY   
unknown             Google              Pixel 4             REC # / TYPE / VERS 
unknown             Pixel 4                                 ANT # / TYPE        
 -2419229.7018  5385470.4249  2405344.1980                  APPROX POSITION XYZ 
        0.0000        0.0000        0.0000                  ANTENNA: DELTA H/E/N
     1     1                                                WAVELENGTH FACT L1/2
    10    C1    L1    D1    S1    P1    C2    L2    D2    S2# / TYPES OF OBSERV 
          P2                                                # / TYPES OF OBSERV 
  2021     5    17     2    33   13.4446064     GPS         TIME OF FIRST OBS   
  2021     5    17     2    46   18.4446844     GPS         TIME OF LAST OBS    
                                                            END OF HEADER       
 21  5 17  2 33 13.4446064  0  5G 1G 8G 9G16G21
  21535527.222                        3331.250          24.250                  
                                                                                
  21048989.245                       -1685.950          17.000                  
                                                                                
  22982617.022   120774427.177       -1775.092          34.000                  
                                                                                
  24268996.480                       -1485.850          20.500                  
                                                                                
  20575739.269   108126203.745        1076.232          27.250                  
                                                                                
 21  5 17  2 33 14.4446066  0  4G 1G 9G16G21
  21534958.735                        3329.950          25.250                  
                                                                                
  22983005.772   120776517.031       -1774.417          33.750                  
                                                                                
  24269355.551                       -1486.000          22.250                  
                                                                                
  20575605.481   108125442.333        1076.461          27.500                  
                                                                                
 21  5 17  2 33 15.4446067  0  4G 1G 9G16G21
  21534341.097                        3329.700          25.250                  
                                                                                
  22983368.457   120778449.741       -1774.331          33.500                  
                                                                                
  24269687.656                       -1484.650          22.750                  
                                                                                
  20575418.046   108124523.5951       1076.386          26.500                  
                                                                                
 21  5 17  2 33 16.4446069  0  4G 1G 9G16G21
  21533768.084                        3327.550          25.250                  
                                                                                
  22983776.364   120780541.344       -1776.566          33.500                  
                                                                                
  24269972.649                       -1489.300          24.000                  
                                                                                
  20575268.939   108123764.2091       1074.508          26.500                  
                                                                                
 21  5 17  2 33 17.4446071  0  4G 1G 9G16G21
  21533198.046   113157718.9091       3326.633          25.750                  
                                                                                
  22984165.062   120782632.926       -1776.969          33.500                  
                                                                                
  24270334.665                       -1489.050          24.500                  
                                                                                
  20575146.791   108123005.7141       1072.962          26.500                  
                                                                                
 21  5 17  2 33 18.4446072  0  4G 1G 9G16G21
  21532582.626                        3329.450          24.750                  
                                                                                
  22984542.855   120784565.096       -1774.709          34.000                  
                                                                                
  24270680.680                       -1483.550          23.750                  
                                                                                
  20574947.783   108122088.1351       1074.871          26.750                  
                                                                                
 21  5 17  2 33 19.4446074  0  5G 1G 9G16G21G27
  21532022.599   113151542.2371       3328.737          27.250                  
                                                                                
  22984940.365   120786655.576       -1774.557          34.500                  
                                                                                
  24271033.221                       -1480.150          24.750                  
                                                                                
  20574820.057   108121329.2411       1074.589          26.000                  
                                                                                
  23194905.709                       -2829.300          15.250                  
                                                                                
 21  5 17  2 33 20.4446075  0  5G 1G 8G 9G16G21
  21531418.344                        3326.400          23.750                  
                                                                                
  21051528.564                       -1678.700          15.500                  
                                                                                
  22985314.332   120788588.373       -1777.174          34.000                  
                                                                                
  24271333.140                       -1485.450          25.250                  
                                                                                
  20574643.305                        1069.450          24.750                  
                                                                                
 21  5 17  2 33 21.4446076  0  5G 1G 8G 9G16G21
  21530804.765                        3324.300          25.250                  
                                                                                
  21051967.257                       -1673.150          22.250                  
                                                                                
  22985682.574   120790523.569       -1775.305          34.000                  
                                                                                
  24271614.741                       -1487.950          24.000                  
                                                                                
  20574462.627   108119530.7861       1069.086          28.000                  
                                                                                
 21  5 17  2 33 22.4446078  0  6G 1G 4G 9G16G21G27
  21530244.948   113142199.8561       3328.720          26.000                  
                                                                                
  23659996.352                       -2634.350          17.500                  
                                                                                
  22986071.900   120792610.096       -1768.757          33.500                  
                                                                                
  24271998.072                       -1487.100          21.000                  
                                                                                
  20574325.217   108118775.9331       1069.739          29.500                  
                                                                                
  23196694.989                       -2824.400          19.500                  
                                                                                
 21  5 17  2 33 23.4446079  0  5G 1G 8G 9G21G27
  21529653.891   113139026.3071       3331.945          27.000                  
                                                                                
  21052670.600                       -1669.750          20.500                  
                                                                                
  22986435.083   120794532.251       -1762.616          31.250                  
                                                                                
  20574145.176                        1069.300          25.250                  
                                                                                
  23197286.613                       -2818.000          21.500                  
                                                                                
 21  5 17  2 33 24.4446081  0  6G 1G 8G 9G16G21G27
  21529064.760                        3329.950          24.500                  
                                                                                
  21053046.801                       -1664.500          21.750                  
                                                                                
  22986833.468   120796609.091       -1758.913          32.000                  
                                                                                
  24272629.530                       -1497.900          22.000                  
                                                                                
  20573999.738                        1070.200          25.000                  
                                                                                
  23197911.642                       -2812.750          21.750                  
                                                                                
 21  5 17  2 33 25.4446083  0  4G 1G 9G16G21
  21528514.862                        3332.000          22.250                  
                                                                                
  22987226.117   120798683.835       -1758.822          33.000                  
                                                                                
  24272926.546                       -1492.550          23.750                  
                                                                                
  20573863.254                        1074.650          23.250                  
                                                                                
 21  5 17  2 33 26.4446084  0  5G 1G 8G 9G16G21
  21527892.857                        3334.600          25.000                  
                                                                                
  21053797.466                       -1664.900          21.500                  
                                                                                
  22987594.326   120800599.5851      -1759.735          28.750                  
                                                                                
  24273275.868                       -1481.000          23.750                  
                                                                                
  20573705.927                        1074.500          21.500                  
                                                                                
 21  5 17  2 33 27.4446086  0  7G 1G 7G 8G 9G16G21G27
  21527327.181                        3327.250          23.750                  
                                                                                
  21054941.507                        2446.800          27.000                  
                                                                                
  21054182.432                       -1673.750          23.750                  
                                                                                
  22988078.824                       -1767.750          24.250                  
                                                                                
  24273690.513                       -1476.750          22.250                  
                                                                                
  20573543.771                        1074.800          22.500                  
                                                                                
  23199645.359                       -2822.150          19.750                  
                                                                                
 21  5 17  2 33 28.4446087  0  8G 1G 7G 8G 9G16G21G27G30
  21526725.421   113123705.1721       3333.914          29.500                  
                                                                                
  21054503.134   110642160.6071       2446.321          34.750                  
                                                                                
  21054518.423                       -1673.750          23.250                  
                                                                                
  22988397.726   120804844.6421      -1766.185          27.750                  
                                                                                
  24273935.367                       -1484.750          25.000                  
                                                                                
  20573360.522   108113738.5431       1074.895          32.000                  
                                                                                
  23200231.077                       -2819.750          23.000                  
                                                                                
  24114345.949                        3586.400          18.750                  
                                                                                
 21  5 17  2 33 29.4446089  0  8G 1G 4G 7G 8G 9G16G21G27
  21526143.517   113120683.3991       3338.683          35.000                  
                                                                                
  23663845.417                       -2618.400          17.000                  
                                                                                
  21054116.395   110640023.8671       2454.619          30.500                  
                                                                                
  21054911.144   110644304.5791      -1670.619          27.500                  
                                                                                
  22988758.370   120806932.9041      -1780.278          30.000                  
                                                                                
  24274276.524                       -1471.400          23.250                  
                                                                                
  20573217.514   108112976.634        1078.626          39.500                  
                                                                                
  23200797.678                       -2821.650          24.750                  
                                                                                
 21  5 17  2 33 30.4446090  0  7G 1G 4G 7G 8G21G27G30
  21525521.453   113117504.307        3337.097          35.000                  
                                                                                
  23664416.227                       -2615.000          21.250                  
                                                                                
  21053664.912                        2438.550          29.750                  
                                                                                
  21055251.114   110646134.9411      -1674.123          32.750                  
                                                                                
  20573043.639   108112058.289        1077.492          34.000                  
                                                                                
  23201356.496                       -2830.050          32.000                  
                                                                                
  24113268.493                        3619.550          25.250                  
                                                                                
 21  5 17  2 33 31.4446092  0  8G 1G 4G 7G 8G 9G21G27G30
  21524947.218   113114478.840        3339.188          33.500                  
                                                                                
  23664970.411                       -2611.750          23.750                  
                                                                                
  21053252.266   110635587.1851       2435.168          30.000                  
                                                                                
  21055616.429                       -1684.750          33.500                  
                                                                                
  22989606.955                       -1767.550          20.500                  
                                                                                
  20572896.909   108111293.573        1077.622          34.250                  
                                                                                
  23201952.352   121927082.5271      -2827.867          33.500                  
                                                                                
  24112679.868   126712987.5021       3626.212          27.500                  
                                                                                
 21  5 17  2 33 32.4446093  0  8G 1G 4G 7G 8G 9G21G27G30
  21524342.826   113111297.332        3342.373          32.750                  
                                                                                
  23665491.739                       -2609.450          24.750                  
                                                                                
  21052819.055   110633312.9501       2432.170          27.500                  
                                                                                
  21055970.773   110649872.4371      -1682.410          33.250                  
                                                                                
  22990009.566                       -1760.350          23.500                  
                                                                                
  20572726.616   108110374.471        1079.092          34.750                  
                                                                                
  23202516.250   121930071.1311      -2842.763          31.000                  
                                                                                
  24111996.330   126709518.511        3629.714          29.250                  
                                                                                
 21  5 17  2 33 33.4446095  0  8G 1G 4G 7G 8G 9G21G27G30
  21523771.399   113108267.6221       3346.494          26.750                  
                                                                                
  23666025.947   124365804.8551      -2605.472          26.000                  
                                                                                
  21052432.000                        2427.350          22.000                  
                                                                                
  21056349.988   110651864.6501      -1674.034          32.500                  
                                                                                
  22990370.793                       -1757.900          23.750                  
                                                                                
  20572578.196   108109610.223        1079.780          38.250                  
                                                                                
  23203117.911                       -2833.100          28.000                  
                                                                                
  24111367.943                        3631.050          23.250                  
                                                                                
 21  5 17  2 33 34.4446096  0  9G 1G 4G 7G 8G 9G16G21G22G27
  21523173.206   113105079.4511       3345.533          29.500                  
                                                                                
  23666512.703   124368566.0551      -2606.474          26.500                  
                                                                                
  21052024.176                        2445.350          21.000                  
                                                                                
  21056697.641                       -1692.400          29.000                  
                                                                                
  22990741.230   120817160.5071      -1759.951          26.250                  
                                                                                
  24276024.947                       -1475.150          18.500                  
                                                                                
  20572399.413   108108686.544        1081.818          39.000                  
                                                                                
  24963253.289                        1866.350          17.000                  
                                                                                
  23203696.105   121936245.0671      -2831.200          29.500                  
                                                                                
 21  5 17  2 33 35.4446098  0  8G 1G 4G 7G 8G 9G21G22G27
  21522607.787                        3343.900          23.000                  
                                                                                
  23667104.783                       -2604.700          23.750                  
                                                                                
  21051602.657   110626918.1001       2432.765          26.500                  
                                                                                
  21057085.561                       -1690.400          25.500                  
                                                                                
  22991165.126   120819234.0921      -1755.290          27.500                  
                                                                                
  20572257.001   108107920.925        1082.296          38.250                  
                                                                                
  24962952.586                        1867.550          17.750                  
                                                                                
  23204310.968   121939391.8561      -2830.641          28.250                  
                                                                                
 21  5 17  2 33 36.4446099  0  9G 1G 4G 7G 8G 9G21G22G27G30
  21522004.437                        3339.500          22.000                  
                                                                                
  23667683.514                       -2612.850          25.000                  
                                                                                
  21051162.994   110624647.866        2423.299          29.750                  
                                                                                
  21057466.730                       -1677.450          30.250                  
                                                                                
  22991483.937                       -1762.300          25.500                  
                                                                                
  20572080.855   108106995.229        1082.755          36.250                  
                                                                                
  24962615.751                        1871.750          19.000                  
                                                                                
  23204851.926   121942382.7791      -2836.812          28.750                  
                                                                                
  24109247.226                        3560.200          23.500                  
                                                                                
 21  5 17  2 33 37.4446101  0 10G 1G 4G 7G 8G 9G16G21G22G27G30
  21521406.759                        3344.750          24.250                  
                                                                                
  23668140.806                       -2655.000          22.000                  
                                                                                
  21050758.082   110622539.690        2421.574          30.250                  
                                                                                
  21057811.299                       -1699.450          27.750                  
                                                                                
  22991866.881                       -1780.300          30.000                  
                                                                                
  24277001.001                       -1484.750          19.250                  
                                                                                
  20571934.365   108106226.318        1083.512          36.250                  
                                                                                
  24962309.771                        1871.800          19.500                  
                                                                                
  23205533.462                       -2782.500          27.750                  
                                                                                
  24108765.568                        3639.250          23.000                  
                                                                                
 21  5 17  2 33 38.4446102  0  8G 1G 7G 8G 9G21G22G27G30
  21520808.222   113092609.9161       3351.324          27.000                  
                                                                                
  21050325.030   110620275.5261       2420.347          30.250                  
                                                                                
  21058172.398                       -1692.550          25.250                  
                                                                                
  22992232.176   120824995.1801      -1781.803          30.500                  
                                                                                
  20571759.434   108105299.358        1084.662          36.000                  
                                                                                
  24961989.741                        1871.550          19.500                  
                                                                                
  23206125.701                       -2795.300          23.750                  
                                                                                
  24107970.966                        3552.500          21.750                  
                                                                                
 21  5 17  2 33 39.4446103  0  7G 1G 7G 8G 9G21G22G30
  21520202.207                        3342.650          27.000                  
                                                                                
  21049900.390   110618014.2001       2421.859          29.250                  
                                                                                
  21058535.012                       -1688.050          23.750                  
                                                                                
  22992655.049                       -1769.350          28.500                  
                                                                                
  20571585.421   108104372.934        1086.950          36.000                  
                                                                                
  24961663.733                        1872.000          19.500                  
                                                                                
  24107339.169                        3598.750          21.250                  
                                                                                
 21  5 17  2 33 40.4446105  0  8G 1G 7G 8G 9G21G22G27G30
  21519625.224                        3342.350          27.750                  
                                                                                
  21049507.480   110615908.066        2418.555          31.250                  
                                                                                
  21058910.770                       -1704.800          35.000                  
                                                                                
  22993044.897                       -1754.450          33.250                  
                                                                                
  20571437.741   108103601.807        1083.307          37.250                  
                                                                                
  24961369.454                        1872.700          19.750                  
                                                                                
  23207282.284                       -2794.050          20.750                  
                                                                                
  24106733.407                        3549.000          23.000                  
                                                                                
 21  5 17  2 33 41.4446106  0  9G 1G 4G 7G 8G 9G16G21G27G30
  21519065.187                        3315.950          25.500                  
                                                                                
  23670358.478                       -2603.350          23.000                  
                                                                                
  21049064.962   110613646.284        2417.568          29.750                  
                                                                                
  21059269.897   110667210.0311      -1704.309          33.250                  
                                                                                
  22993395.929   120831110.7061      -1748.003          34.500                  
                                                                                
  24278203.875                       -1483.650          17.500                  
                                                                                
  20571258.740   108102675.626        1081.260          37.000                  
                                                                                
  23207851.265   121958080.9051      -2796.976          31.000                  
                                                                                
  24106093.625                        3549.800          21.000                  
                                                                                
 21  5 17  2 33 42.4446108  0 10G 1G 4G 7G 8G 9G16G21G22G27G30
  21518438.396                        3330.250          27.000                  
                                                                                
  23670937.452                       -2603.200          22.250                  
                                                                                
  21048669.910   110611546.182        2418.483          30.250                  
                                                                                
  21059660.002   110669231.6121      -1703.295          30.000                  
                                                                                
  22993834.600                       -1757.350          26.000                  
                                                                                
  24278532.223                       -1488.050          21.000                  
                                                                                
  20571115.814   108101911.8441       1080.815          35.000                  
                                                                                
  24960785.209                        1884.200          19.750                  
                                                                                
  23208436.534   121961196.9261      -2799.419          26.750                  
                                                                                
  24105573.859                        3627.750          23.000                  
                                                                                
 21  5 17  2 33 43.4446109  0  7G 1G 4G 7G 8G 9G21G27
  21517833.507                        3342.850          27.250                  
                                                                                
  23671448.091                       -2588.900          23.000                  
                                                                                
  21048236.502   110609283.853        2419.135          31.250                  
                                                                                
  21059993.763   110671090.7561      -1702.978          28.500                  
                                                                                
  22994202.538                       -1747.250          32.250                  
                                                                                
  20570937.829   108100987.969        1079.941          36.750                  
                                                                                
  23209027.218                       -2858.350          29.750                  
                                                                                
 21  5 17  2 33 44.4446111  0  9G 1G 4G 7G 8G 9G16G21G22G27
  21517238.505   113073851.2771       3349.211          26.750                  
                                                                                
  23671980.309                       -2641.200          22.250                  
                                                                                
  21047830.670   110607179.4751       2419.965          29.000                  
                                                                                
  21060388.076                       -1676.100          30.500                  
                                                                                
  22994589.656                       -1810.600          27.500                  
                                                                                
  24279191.345                       -1469.250          19.500                  
                                                                                
  20570791.617   108100224.849        1076.659          38.000                  
                                                                                
  24960061.988                        1880.050          20.750                  
                                                                                
  23209624.791                       -2806.100          22.250                  
                                                                                
 21  5 17  2 33 45.4446112  0  8G 1G 4G 7G 8G 9G21G22G27
  21516630.843   113070665.8921       3337.359          27.250                  
                                                                                
  23672469.887                       -2625.750          25.500                  
                                                                                
  21047409.178   110604914.629        2426.158          30.500                  
                                                                                
  21060741.848                       -1684.400          32.250                  
                                                                                
  22994977.305                       -1792.050          24.750                  
                                                                                
  20570621.052   108099308.735        1071.075          37.000                  
                                                                                
  24959724.739   131164238.2071       1871.632          26.000                  
                                                                                
  23210206.105                       -2809.750          23.750                  
                                                                                
 21  5 17  2 33 46.4446114  0  9G 1G 4G 7G 8G 9G21G22G27G30
  21516061.097   113067647.8171       3328.967          31.000                  
                                                                                
  23673029.159   124402607.2951      -2627.422          28.250                  
                                                                                
  21047002.819   110602801.0681       2432.794          30.000                  
                                                                                
  21061120.346                       -1692.900          29.500                  
                                                                                
  22995324.924   120841248.0121      -1789.075          26.000                  
                                                                                
  20570480.909   108098556.875        1064.182          36.500                  
                                                                                
  24959414.913                        1857.850          24.500                  
                                                                                
  23210813.644   121973648.8681      -2814.329          27.750                  
                                                                                
  24102984.607                        3571.750          19.500                  
                                                                                
 21  5 17  2 33 47.4446115  0  9G 1G 4G 7G 8G 9G16G21G22G27
  21515474.021                        3318.050          25.250                  
                                                                                
  23673566.005   124405393.6061      -2630.324          27.250                  
                                                                                
  21046564.740   110600521.735        2439.593          30.250                  
                                                                                
  21061492.906   110678892.0121      -1689.926          28.750                  
                                                                                
  22995698.083   120843189.6501      -1782.965          25.750                  
                                                                                
  24280213.732                       -1485.450          20.750                  
                                                                                
  20570303.049   108097653.952        1056.981          37.500                  
                                                                                
  24959120.734                        1849.600          24.000                  
                                                                                
  23211372.675   121976628.6321      -2826.714          26.000                  
                                                                                
 21  5 17  2 33 48.4446117  0  7G 4G 7G 8G16G21G27G30
  23674094.381   124408340.833       -2632.092          28.500                  
                                                                                
  21046166.458   110598392.937        2444.720          29.000                  
                                                                                
  21061863.591   110680893.739       -1686.368          31.500                  
                                                                                
  24280521.760                       -1482.500          21.250                  
                                                                                
  20570158.991   108096913.173        1054.151          37.250                  
                                                                                
  23212023.666   121979770.8301      -2828.099          30.500                  
                                                                                
  24101681.769                        3600.150          19.250                  
                                                                                
 21  5 17  2 33 49.4446118  0  8G 1G 4G 7G 8G16G21G22G27
  21514347.018                        3317.200          21.250                  
                                                                                
  23674637.979   124411131.817       -2634.193          28.750                  
                                                                                
  21045723.139   110596107.0201       2442.621          28.500                  
                                                                                
  21062213.223   110682738.958       -1688.633          32.000                  
                                                                                
  24280835.118                       -1484.800          20.250                  
                                                                                
  20569992.681   108096018.281        1051.383          38.750                  
                                                                                
  24958523.164                        1841.300          22.000                  
                                                                                
  23212596.644   121982757.3941      -2830.079          31.000                  
                                                                                
 21  5 17  2 33 50.4446120  0  6G 4G 7G 8G21G27G30
  23675197.145   124414082.488       -2636.233          30.750                  
                                                                                
  21045315.174   110593980.986        2440.048          31.250                  
                                                                                
  21062588.616   110684744.041       -1690.651          30.500                  
                                                                                
  20569850.032   108095283.753        1048.721          38.250                  
                                                                                
  23213191.785   121985903.615       -2831.653          30.750                  
                                                                                
  24100350.517                        3592.650          23.250                  
                                                                                
 21  5 17  2 33 51.4446121  0 10G 1G 4G 7G 8G 9G16G21G22G27G30
  21513128.723                        3311.650          20.750                  
                                                                                
  23675738.579   124416875.705       -2637.780          30.250                  
                                                                                
  21044893.675   110591698.317        2438.005          29.500                  
                                                                                
  21062952.873   110686592.166       -1692.616          31.000                  
                                                                                
  22997252.485                       -1786.650          17.250                  
                                                                                
  24281472.238                       -1488.550          19.500                  
                                                                                
  20569674.962   108094392.493        1046.524          37.500                  
                                                                                
  24957892.762                        1834.400          19.250                  
                                                                                
  23213763.198   121988892.549       -2833.382          30.000                  
                                                                                
  24099687.985                        3590.250          24.250                  
                                                                                
 21  5 17  2 33 52.4446123  0  7G 4G 7G 8G21G22G27G30
  23676286.237   124419829.864       -2637.331          30.500                  
                                                                                
  21044476.901   110589577.163        2437.687          29.500                  
                                                                                
  21063332.048   110688601.383       -1692.575          30.750                  
                                                                                
  20569539.094   108093662.793        1046.196          37.500                  
                                                                                
  24957589.909                        1832.300          21.750                  
                                                                                
  23214350.129   121992042.4081      -2833.031          29.250                  
                                                                                
  24099096.732                        3591.200          24.250                  
                                                                                
 21  5 17  2 33 53.4446124  0  9G 4G 7G 8G 9G16G21G22G27G30
  23676835.526   124422622.825       -2636.058          30.250                  
                                                                                
  21044066.254   110587295.216        2438.573          30.500                  
                                                                                
  21063681.075   110690449.723       -1691.650          31.000                  
                                                                                
  22998046.641                       -1787.750          19.250                  
                                                                                
  24282120.995                       -1491.700          18.500                  
                                                                                
  20569374.576   108092772.579        1046.716          37.250                  
                                                                                
  24957288.686                        1836.500          23.500                  
                                                                                
  23214919.204   121995031.1581      -2832.143          29.750                  
                                                                                
  24098419.569                        3594.350          23.500                  
                                                                                
 21  5 17  2 33 54.4446126  0  8G 1G 4G 7G 8G21G22G27G30
  21511343.614                        3313.450          19.250                  
                                                                                
  23677404.981   124425574.5891      -2635.524          30.500                  
                                                                                
  21043653.290   110585173.043        2438.447          31.000                  
                                                                                
  21064059.263   110692457.092       -1691.288          31.750                  
                                                                                
  20569235.023   108092041.830        1046.624          38.000                  
                                                                                
  24957041.208                        1836.700          22.000                  
                                                                                
  23215524.335   121998179.1641      -2830.813          28.500                  
                                                                                
  24097855.210                        3594.350          21.750                  
                                                                                
 21  5 17  2 33 55.4446127  0  8G 4G 7G 8G 9G21G22G27G30
  23677936.381   124428368.801       -2636.437          31.000                  
                                                                                
  21043220.257   110582893.183        2437.479          31.000                  
                                                                                
  21064421.580   110694307.191       -1692.370          32.000                  
                                                                                
  22998862.694                       -1787.900          19.250                  
                                                                                
  20569063.110   108091154.161        1045.165          37.750                  
                                                                                
  24956731.090                        1838.850          25.250                  
                                                                                
  23216092.010   122001168.1151      -2831.524          29.000                  
                                                                                
  24097188.639                        3595.750          23.750                  
                                                                                
 21  5 17  2 33 56.4446129  0  6G 4G 7G 8G21G22G27
  23678496.736   124431321.748       -2638.622          31.250                  
                                                                                
  21042813.482   110580772.550        2434.792          31.250                  
                                                                                
  21064805.057   110696316.269       -1694.716          33.500                  
                                                                                
  20568923.449   108090425.864        1042.353          38.250                  
                                                                                
  24956421.447   131146879.7441       1835.794          25.750                  
                                                                                
  23216697.933   122004316.4151      -2834.472          28.500                  
                                                                                
 21  5 17  2 33 57.4446130  0  8G 1G 4G 7G 8G21G22G27G30
  21509603.043                        3304.800          18.500                  
                                                                                
  23679018.487   124434118.678       -2638.299          30.500                  
                                                                                
  21042382.193   110578496.410        2434.494          30.250                  
                                                                                
  21065157.426   110698169.638       -1694.842          34.500                  
                                                                                
  20568761.673   108089542.240        1041.978          38.500                  
                                                                                
  24956136.157                        1837.600          23.750                  
                                                                                
  23217279.043   122007624.1531      -2834.668          28.750                  
                                                                                
  24095884.097                        3589.100          22.750                  
                                                                                
 21  5 17  2 33 58.4446132  0  7G 4G 7G 8G21G22G27G30
  23679575.551   124437070.303       -2638.052          30.250                  
                                                                                
  21041976.622   110576375.421        2434.302          29.250                  
                                                                                
  21065536.412   110700177.941       -1694.907          32.500                  
                                                                                
  20568621.719   108088813.961        1041.598          37.500                  
                                                                                
  24955852.602                        1837.500          25.000                  
                                                                                
  23217887.371   122010771.2721      -2830.918          27.250                  
                                                                                
  24095300.750                        3590.900          22.500                  
                                                                                
 21  5 17  2 33 59.4446133  0  8G 1G 4G 7G 8G21G22G27G30
  21508392.084                        3304.850          20.500                  
                                                                                
  23680114.132   124439865.573       -2638.777          30.500                  
                                                                                
  21041551.671   110574098.547        2433.274          30.250                  
                                                                                
  21065892.420   110702030.167       -1695.826          33.500                  
                                                                                
  20568453.989   108087930.033        1040.189          38.250                  
                                                                                
  24955547.868                        1835.900          22.000                  
                                                                                
  23218434.946   122013759.9041      -2834.205          27.250                  
                                                                                
  24094660.847                        3586.450          22.250                  
                                                                                
 21  5 17  2 34  0.4446134  0  8G 1G 4G 7G 8G21G22G27G30
  21507863.847                        3303.550          21.250                  
                                                                                
  23680643.263   124442662.089       -2639.527          29.500                  
                                                                                
  21041113.971   110571823.350        2432.090          30.500                  
                                                                                
  21066251.568   110703883.895       -1696.861          33.000                  
                                                                                
  20568285.203   108087047.959        1038.844          38.000                  
                                                                                
  24955196.508                        1834.850          25.000                  
                                                                                
  23219034.528   122016751.8651      -2834.329          26.000                  
                                                                                
  24093977.018                        3588.350          21.250                  
                                                                                
 21  5 17  2 34  1.4446136  0  8G 1G 4G 7G 8G21G22G27G30
  21507276.856                        3305.400          23.250                  
                                                                                
  23681214.071   124445618.586       -2639.661          30.000                  
                                                                                
  21040717.348   110569708.615        2431.378          31.000                  
                                                                                
  21066627.811   110705897.873       -1697.383          33.750                  
                                                                                
  20568149.101   108086326.531        1037.888          37.750                  
                                                                                
  24954944.086                        1833.950          23.500                  
                                                                                
  23219625.722   122019903.2741      -2835.377          25.750                  
                                                                                
  24093396.023                        3589.250          22.500                  
                                                                                
 21  5 17  2 34  2.4446137  0  8G 4G 7G 8G 9G21G22G27G30
  23681753.944   124448415.896       -2640.386          30.000                  
                                                                                
  21040278.400   110567435.100        2430.186          32.750                  
                                                                                
  21066978.216   110707752.904       -1698.239          34.500                  
                                                                                
  23001466.697                       -1793.050          16.750                  
                                                                                
  20567982.663   108085446.574        1036.563          38.750                  
                                                                                
  24954602.270                        1837.450          22.000                  
                                                                                
  23220171.891                       -2831.550          25.000                  
                                                                                
  24092688.760                        3586.700          24.000                  
                                                                                
 21  5 17  2 34  3.4446139  0  8G 1G 4G 7G 8G 9G21G27G30
  21506084.824                        3297.250          22.000                  
                                                                                
  23682314.252   124451369.901       -2640.705          30.500                  
                                                                                
  21039881.170   110565318.788        2429.490          32.250                  
                                                                                
  21067363.444   110709764.921       -1698.738          35.250                  
                                                                                
  23001845.031                       -1801.100          22.250                  
                                                                                
  20567842.056   108084723.957        1035.697          39.000                  
                                                                                
  23220769.672                       -2836.050          25.250                  
                                                                                
  24092076.879                        3588.550          23.500                  
                                                                                
 21  5 17  2 34  4.4446140  0  8G 1G 4G 7G 8G 9G21G22G30
  21505510.101                        3302.400          25.000                  
                                                                                
  23682847.562   124454169.927       -2641.149          30.500                  
                                                                                
  21039445.551   110563048.992        2428.513          33.750                  
                                                                                
  21067713.281   110711623.215       -1699.463          36.500                  
                                                                                
  23002250.929   120877644.1911      -1796.921          26.000                  
                                                                                
  20567679.248   108083848.048        1034.529          39.000                  
                                                                                
  24954005.357                        1835.000          22.000                  
                                                                                
  24091478.472                        3591.100          23.500                  
                                                                                
 21  5 17  2 34  5.4446142  0  9G 1G 4G 7G 8G 9G21G22G27G30
  21504928.014                        3301.400          24.000                  
                                                                                
  23683404.986   124457126.817       -2641.271          31.000                  
                                                                                
  21039048.736   110560936.503        2428.021          34.750                  
                                                                                
  21068092.929   110713638.675       -1699.900          37.000                  
                                                                                
  23002664.153   120879757.0141      -1797.224          27.750                  
                                                                                
  20567541.454   108083129.675        1033.804          39.250                  
                                                                                
  24953698.780                        1832.500          22.250                  
                                                                                
  23221971.330                       -2838.600          24.750                  
                                                                                
  24090835.828                        3585.300          21.750                  
                                                                                
 21  5 17  2 34  6.4446143  0  9G 1G 4G 7G 8G 9G21G22G27G30
  21504329.979                        3301.150          24.750                  
                                                                                
  23683931.173   124459924.156       -2641.167          30.750                  
                                                                                
  21038615.886   110558664.940        2427.500          34.000                  
                                                                                
  21068447.035   110715494.868       -1700.163          36.500                  
                                                                                
  23003036.246   120881711.140       -1797.487          29.250                  
                                                                                
  20567375.120   108082252.417        1033.117          39.000                  
                                                                                
  24953384.948                        1836.000          21.500                  
                                                                                
  23222499.915   122035060.2341      -2837.270          27.750                  
                                                                                
  24090183.230                        3584.250          21.500                  
                                                                                
 21  5 17  2 34  7.4446144  0  7G 1G 4G 7G 8G 9G21G27
  21503729.051                        3297.400          23.250                  
                                                                                
  23684453.567   124462724.360       -2642.299          29.750                  
                                                                                
  21038186.440   110556396.641        2426.123          33.500                  
                                                                                
  21068795.250   110717354.140       -1701.366          36.250                  
                                                                                
  23003400.351   120883667.3181      -1798.820          29.000                  
                                                                                
  20567210.690   108081378.655        1031.408          39.250                  
                                                                                
  23223083.167   122038056.5761      -2838.533          26.750                  
                                                                                
 21  5 17  2 34  8.4446146  0  9G 1G 4G 7G 8G 9G21G22G27G30
  21503177.121                        3294.250          24.000                  
                                                                                
  23685003.074   124465681.693       -2642.444          30.000                  
                                                                                
  21037769.116   110554286.072        2425.282          32.500                  
                                                                                
  21069181.969   110719370.903       -1701.990          36.250                  
                                                                                
  23003810.754   120885781.486       -1799.317          30.000                  
                                                                                
  20567075.470   108080662.761        1030.497          39.500                  
                                                                                
  24952763.921                        1832.300          18.500                  
                                                                                
  23223680.941   122041210.138       -2838.782          28.250                  
                                                                                
  24088883.773                        3588.700          20.750                  
                                                                                
 21  5 17  2 34  9.4446147  0  8G 1G 4G 7G 8G 9G21G27G30
  21502548.139                        3294.350          22.750                  
                                                                                
  23685548.380   124468479.6131      -2641.847          28.750                  
                                                                                
  21037349.090   110552016.904        2425.809          31.750                  
                                                                                
  21069536.907   110721228.926       -1701.342          36.250                  
                                                                                
  23004185.178   120887736.902       -1798.815          30.000                  
                                                                                
  20566900.974   108079788.488        1030.756          40.000                  
                                                                                
  23224228.345   122044204.7171      -2837.888          29.250                  
                                                                                
  24088278.775                        3584.550          23.750                  
                                                                                
 21  5 17  2 34 10.4446149  0  8G 1G 4G 7G 8G 9G21G27G30
  21501995.436                        3302.200          22.500                  
                                                                                
  23686118.399   124471436.1361      -2640.931          29.000                  
                                                                                
  21036939.688   110549906.476        2425.816          30.500                  
                                                                                
  21069913.560   110723245.424       -1701.128          35.250                  
                                                                                
  23004570.525   120889850.760       -1798.424          28.500                  
                                                                                
  20566765.882   108079073.110        1030.629          39.000                  
                                                                                
  23224820.549   122047357.5401      -2837.098          28.500                  
                                                                                
  24087692.196                        3581.100          22.250                  
                                                                                
 21  5 17  2 34 11.4446150  0  9G 1G 4G 7G 8G 9G16G21G27G30
  21501417.080                        3297.500          23.000                  
                                                                                
  23686641.481   124474237.0561      -2642.802          27.750                  
                                                                                
  21036495.638   110547640.2431       2423.467          29.750                  
                                                                                
  21070268.458   110725106.514       -1703.179          34.500                  
                                                                                
  23004937.115   120891809.2881      -1800.681          29.750                  
                                                                                
  24288099.500                       -1500.450          16.750                  
                                                                                
  20566605.137   108078202.681        1028.159          38.250                  
                                                                                
  23225389.199   122050354.1811      -2838.976          29.500                  
                                                                                
  24086966.341                        3591.750          24.000                  
                                                                                
 21  5 17  2 34 12.4446152  0  9G 1G 4G 7G 8G 9G21G22G27G30
  21500891.730                        3296.300          25.500                  
                                                                                
  23687213.371   124477195.2641      -2643.207          28.500                  
                                                                                
  21036084.209   110545532.313        2423.024          28.250                  
                                                                                
  21070648.781   110727124.644       -1703.539          34.500                  
                                                                                
  23005327.031   120893924.7871      -1801.338          28.500                  
                                                                                
  20566464.420   108077489.722        1027.426          38.250                  
                                                                                
  24951464.248                        1828.850          17.750                  
                                                                                
  23225992.267   122053508.673       -2839.188          31.000                  
                                                                                
  24086372.638                        3589.650          21.500                  
                                                                                
 21  5 17  2 34 13.4446153  0  9G 1G 4G 7G 8G 9G16G21G27G30
  21500273.328                        3296.150          25.500                  
                                                                                
  23687746.172   124479995.923       -2642.794          28.500                  
                                                                                
  21035656.776   110543266.2631       2423.383          26.500                  
                                                                                
  21071011.600   110728986.060       -1703.603          34.750                  
                                                                                
  23005713.834   120895884.094       -1800.998          29.250                  
                                                                                
  24288778.786                       -1501.700          19.000                  
                                                                                
  20566302.003   108076620.409        1027.035          38.250                  
                                                                                
  23226564.042   122056505.1551      -2838.985          30.500                  
                                                                                
  24085640.016                        3586.200          22.000                  
                                                                                
 21  5 17  2 34 14.4446154  0  8G 1G 4G 7G 8G 9G16G21G27
  21499659.333   112981471.7541       3296.072          26.000                  
                                                                                
  23688274.086   124482794.1371      -2643.120          28.500                  
                                                                                
  21035213.962   110540999.9101       2421.856          28.750                  
                                                                                
  21071357.240   110730845.854       -1704.307          35.250                  
                                                                                
  23006053.178   120897840.7021      -1801.148          26.750                  
                                                                                
  24289071.663                       -1503.800          22.000                  
                                                                                
  20566134.399   108075749.850        1025.812          38.500                  
                                                                                
  23227135.426   122059500.220       -2839.281          31.000                  
                                                                                
 21  5 17  2 34 15.4446156  0  9G 1G 4G 7G 8G 9G21G22G27G30
  21499137.927                        3298.950          24.000                  
                                                                                
  23688835.831   124485755.6731      -2643.845          27.500                  
                                                                                
  21034810.674   110538896.7591       2421.123          26.750                  
                                                                                
  21071746.604   110732868.613       -1705.276          34.000                  
                                                                                
  23006435.047                       -1800.500          24.250                  
                                                                                
  20566003.323   108075042.700        1024.485          37.500                  
                                                                                
  24950553.762                        1836.550          17.500                  
                                                                                
  23227731.946   122062658.131       -2840.166          30.000                  
                                                                                
  24084374.805                        3577.400          19.500                  
                                                                                
 21  5 17  2 34 16.4446157  0  7G 1G 4G 7G 8G16G21G27
  21498565.118                        3288.750          24.500                  
                                                                                
  23689367.757   124488554.898       -2644.748          28.000                  
                                                                                
  21034363.778   110536327.1531       2419.324          26.500                  
                                                                                
  21072099.254   110734729.369       -1706.455          33.750                  
                                                                                
  24289699.756                       -1498.700          21.500                  
                                                                                
  20565838.232   108074173.920        1023.119          37.500                  
                                                                                
  23228292.353   122065653.771       -2841.196          30.500                  
                                                                                
 21  5 17  2 34 17.4446159  0  9G 1G 4G 7G 8G 9G16G21G27G30
  21497953.449                        3289.600          25.250                  
                                                                                
  23689928.577   124491516.2401      -2645.610          28.000                  
                                                                                
  21033977.853   110534224.777        2418.022          25.750                  
                                                                                
  21072483.496   110736752.469       -1707.426          34.500                  
                                                                                
  23007188.428                       -1806.750          18.750                  
                                                                                
  24290056.417                       -1503.450          21.500                  
                                                                                
  20565706.531   108073467.928        1021.492          37.500                  
                                                                                
  23228916.129   122068811.543       -2842.085          29.750                  
                                                                                
  24083143.260                        3582.500          19.500                  
                                                                                
 21  5 17  2 34 18.4446160  0  7G 1G 4G 7G 8G16G21G27
  21497360.884   112969393.6571       3291.586          27.250                  
                                                                                
  23690464.730   124494320.5151      -2645.247          27.000                  
                                                                                
  21033564.863   110531965.6451       2417.283          27.500                  
                                                                                
  21072840.374   110738618.309       -1707.608          34.000                  
                                                                                
  24290324.556                       -1499.350          23.000                  
                                                                                
  20565538.771   108072605.029        1020.919          37.250                  
                                                                                
  23229482.861   122071812.216       -2841.805          30.250                  
                                                                                
 21  5 17  2 34 19.4446161  0  9G 1G 4G 7G 8G 9G16G21G22G27
  21496741.186   112966259.1001       3293.357          26.250                  
                                                                                
  23690998.034   124497122.8131      -2642.679          28.500                  
                                                                                
  21033131.936   110529705.6191       2419.773          28.750                  
                                                                                
  21073201.897   110740483.410       -1705.125          33.750                  
                                                                                
  23007952.097                       -1800.550          20.500                  
                                                                                
  24290681.282                       -1502.900          22.500                  
                                                                                
  20565375.657   108071741.772        1022.951          37.500                  
                                                                                
  24949330.409                        1832.050          17.250                  
                                                                                
  23230043.146   122074811.528       -2839.127          30.250                  
                                                                                
 21  5 17  2 34 20.4446163  0  9G 1G 4G 7G 8G 9G16G21G27G30
  21496183.629                        3305.350          24.250                  
                                                                                
  23691562.000   124500073.7001      -2630.453          26.000                  
                                                                                
  21032738.666   110527594.1121       2431.783          28.500                  
                                                                                
  21073576.394   110742496.963       -1693.127          33.250                  
                                                                                
  23008375.461                       -1791.650          24.500                  
                                                                                
  24291082.461                       -1484.050          22.000                  
                                                                                
  20565236.910   108071027.388        1034.646          37.000                  
                                                                                
  23230646.086   122077958.4961      -2826.883          30.250                  
                                                                                
  24081171.979                        3581.250          18.500                  
                                                                                
 21  5 17  2 34 21.4446164  0  9G 1G 4G 7G 8G 9G16G21G22G27
  21495548.388                        3296.200          24.250                  
                                                                                
  23692071.067                       -2635.600          24.750                  
                                                                                
  21032326.769   110525622.479        2424.438          29.750                  
                                                                                
  21073931.067   110744348.133       -1700.197          33.750                  
                                                                                
  23008792.191   120912018.7211      -1797.694          27.750                  
                                                                                
  24291319.016                       -1498.250          23.000                  
                                                                                
  20565070.244   108070150.997        1027.181          37.000                  
                                                                                
  24948768.074                        1844.850          20.500                  
                                                                                
  23231219.907   122080943.3361      -2833.941          29.500                  
                                                                                
 21  5 17  2 34 22.4446166  0 10G 1G 4G 7G 8G 9G16G21G22G27G30
  21494985.764   112956912.2591       3290.699          27.000                  
                                                                                
  23692638.361                       -2643.100          24.500                  
                                                                                
  21031929.031   110523520.348        2416.427          29.750                  
                                                                                
  21074322.083   110746370.606       -1708.240          34.750                  
                                                                                
  23009182.307   120914138.544       -1805.492          28.500                  
                                                                                
  24291714.529                       -1503.450          22.000                  
                                                                                
  20564932.726   108069446.264        1019.078          37.500                  
                                                                                
  24948450.380                        1833.450          24.250                  
                                                                                
  23231813.583   122084099.211       -2841.130          28.750                  
                                                                                
  24079846.402                        3581.000          19.750                  
                                                                                
 21  5 17  2 34 23.4446167  0  9G 1G 4G 7G 8G 9G16G21G22G27
  21494404.515   112953779.1171       3292.557          26.500                  
                                                                                
  23693206.516                       -2648.350          22.750                  
                                                                                
  21031479.391   110521262.9491       2415.462          29.000                  
                                                                                
  21074672.290   110748237.421       -1708.444          38.000                  
                                                                                
  23009591.573                       -1806.000          24.500                  
                                                                                
  24291937.923                       -1499.900          23.750                  
                                                                                
  20564769.988   108068585.477        1019.769          37.500                  
                                                                                
  24948107.466   131103189.4711       1836.746          27.000                  
                                                                                
  23232378.741   122087098.9171      -2840.986          26.250                  
                                                                                
 21  5 17  2 34 24.4446169  0  9G 1G 4G 7G 8G 9G16G21G22G27
  21493846.102   112950797.2551       3295.977          28.750                  
                                                                                
  23693815.795                       -2641.750          22.750                  
                                                                                
  21031097.556   110519159.5441       2415.883          29.500                  
                                                                                
  21075054.925   110750257.593       -1707.044          39.000                  
                                                                                
  23009940.332   120918052.2241      -1802.921          26.000                  
                                                                                
  24292254.904                       -1498.050          22.000                  
                                                                                
  20564636.081   108067876.663        1022.984          38.250                  
                                                                                
  24947860.238                        1847.350          25.000                  
                                                                                
  23232987.719                       -2837.550          24.500                  
                                                                                
 21  5 17  2 34 25.4446170  0  9G 1G 4G 7G 8G 9G21G22G27G30
  21493225.255   112947656.236        3299.774          31.000                  
                                                                                
  23694288.590                       -2637.750          22.750                  
                                                                                
  21030664.079   110516901.1041       2415.591          26.750                  
                                                                                
  21075411.102   110752121.960       -1706.912          40.500                  
                                                                                
  23010327.087                       -1796.750          25.250                  
                                                                                
  20564470.618   108067009.255        1026.005          37.250                  
                                                                                
  24947516.099   131100080.9561       1845.183          27.000                  
                                                                                
  23233545.057                       -2833.850          25.500                  
                                                                                
  24078113.774                        3582.300          21.000                  
                                                                                
 21  5 17  2 34 26.4446171  0  9G 1G 4G 7G 8G 9G16G21G22G27
  21492628.153   112944516.027        3300.643          33.250                  
                                                                                
  23694854.083                       -2638.000          25.000                  
                                                                                
  21030236.360                        2416.250          24.500                  
                                                                                
  21075769.438   110753988.821       -1706.418          37.500                  
                                                                                
  23010703.111   120922060.2331      -1801.149          26.000                  
                                                                                
  24292929.245                       -1492.700          20.000                  
                                                                                
  20564309.115   108066142.970        1026.427          38.000                  
                                                                                
  24947174.420                        1850.050          25.000                  
                                                                                
  23234132.734                       -2829.650          22.500                  
                                                                                
 21  5 17  2 34 27.4446173  0 10G 1G 4G 7G 8G 9G16G21G22G27G30
  21492063.379   112941528.3191       3301.230          31.000                  
                                                                                
  23695417.728   124520260.2221      -2636.566          29.000                  
                                                                                
  21029824.480                        2421.800          24.250                  
                                                                                
  21076156.205   110756007.802       -1704.348          35.750                  
                                                                                
  23011080.285   120924175.0211      -1800.726          30.250                  
                                                                                
  24293255.154   127661916.7191      -1491.750          29.250                  
                                                                                
  20564175.143   108065429.609        1026.925          38.500                  
                                                                                
  24946916.634                        1846.700          24.750                  
                                                                                
  23234718.564                       -2833.350          21.750                  
                                                                                
  24076740.844                        3584.600          22.750                  
                                                                                
 21  5 17  2 34 28.4446174  0  9G 1G 4G 7G 8G 9G16G21G22G27
  21491457.321   112938385.431        3297.636          32.250                  
                                                                                
  23695963.173                       -2636.700          22.000                  
                                                                                
  21029414.786                        2416.200          25.250                  
                                                                                
  21076507.684   110757868.729       -1704.497          36.500                  
                                                                                
  23011431.165   120926131.309       -1800.214          30.500                  
                                                                                
  24293554.769   127663565.497       -1493.551          30.000                  
                                                                                
  20564004.383   108064560.799        1023.677          40.000                  
                                                                                
  24946561.202                        1848.500          23.500                  
                                                                                
  23235272.403                       -2834.250          22.250                  
                                                                                
 21  5 17  2 34 29.4446176  0 10G 1G 4G 7G 8G 9G16G21G22G27G30
  21490910.274   112935405.4611       3293.598          30.250                  
                                                                                
  23696546.943   124526194.5681      -2640.709          26.750                  
                                                                                
  21029043.118                        2420.400          25.500                  
                                                                                
  21076895.990   110759889.068       -1705.251          34.750                  
                                                                                
  23011838.357   120928247.926       -1802.126          30.000                  
                                                                                
  24293898.406   127665375.9861      -1496.170          28.500                  
                                                                                
  20563872.849   108063854.701        1019.827          41.000                  
                                                                                
  24946330.436                        1843.100          24.750                  
                                                                                
  23235857.672                       -2835.650          22.000                  
                                                                                
  24075541.271                        3580.900          20.500                  
                                                                                
 21  5 17  2 34 30.4446177  0  8G 1G 4G 7G 8G 9G16G21G22
  21490290.955   112932272.614        3291.163          30.500                  
                                                                                
  23697070.434   124528994.4641      -2641.642          27.000                  
                                                                                
  21028601.876                        2411.550          23.250                  
                                                                                
  21077249.198   110761754.328       -1706.860          34.000                  
                                                                                
  23012215.849                       -1805.950          25.000                  
                                                                                
  24294224.633   127667032.9041      -1498.459          28.500                  
                                                                                
  20563708.915   108062995.874        1016.874          41.000                  
                                                                                
  24945924.270                        1837.900          23.250                  
                                                                                
 21  5 17  2 34 31.4446179  0  7G 1G 4G 8G 9G16G21G22
  21489748.084   112929298.042        3289.970          31.500                  
                                                                                
  23697621.505                       -2644.300          24.000                  
                                                                                
  21077632.985   110763778.069       -1708.876          31.250                  
                                                                                
  23012623.919   120932153.9851      -1805.530          27.750                  
                                                                                
  24294595.828                       -1502.250          24.250                  
                                                                                
  20563574.361   108062295.468        1015.491          41.250                  
                                                                                
  24945647.615                        1841.850          23.750                  
                                                                                
 21  5 17  2 34 32.4446180  0  9G 1G 4G 7G 8G 9G16G21G27G30
  21489126.808   112926165.4341       3289.600          28.000                  
                                                                                
  23698205.395                       -2646.500          23.750                  
                                                                                
  21027738.121                        2413.400          26.500                  
                                                                                
  21077986.634   110765644.4761      -1709.175          30.750                  
                                                                                
  23013005.149   120934117.5871      -1806.506          33.500                  
                                                                                
  24294891.917   127670518.1671      -1498.964          26.000                  
                                                                                
  20563407.870   108061436.689        1016.637          40.750                  
                                                                                
  23237617.153                       -2840.100          20.500                  
                                                                                
  24073547.351                        3587.400          18.500                  
                                                                                
 21  5 17  2 34 33.4446181  0  8G 1G 4G 7G 8G 9G16G21G22
  21488563.027                        3296.200          23.000                  
                                                                                
  23698703.778                       -2647.900          25.250                  
                                                                                
  21027306.248   110499239.8651       2407.963          29.500                  
                                                                                
  21078362.402   110767511.0581      -1711.541          26.000                  
                                                                                
  23013370.724   120936079.2281      -1803.756          31.250                  
                                                                                
  24295213.723   127672172.6441      -1497.829          28.000                  
                                                                                
  20563249.108   108060575.600        1018.487          40.000                  
                                                                                
  24945018.372                        1848.000          24.000                  
                                                                                
 21  5 17  2 34 34.4446183  0  9G 1G 4G 7G 8G 9G16G21G22G27
  21487974.325                        3287.700          23.500                  
                                                                                
  23699249.191                       -2654.400          24.000                  
                                                                                
  21026911.212   110497148.8581       2406.364          31.500                  
                                                                                
  21078760.318                       -1711.500          22.000                  
                                                                                
  23013772.237   120938201.6451      -1806.699          34.250                  
                                                                                
  24295549.881   127673986.7041      -1500.286          26.000                  
                                                                                
  20563118.789   108059872.5861       1018.587          32.500                  
                                                                                
  24944710.576   131085338.0111       1851.566          26.500                  
                                                                                
  23238813.244                       -2833.200          20.000                  
                                                                                
 21  5 17  2 34 35.4446184  0  9G 1G 4G 7G 8G 9G21G22G27G30
  21487388.678   112916988.9041       3293.298          29.000                  
                                                                                
  23699714.017                       -2626.500          24.500                  
                                                                                
  21026479.059   110494898.006        2408.003          34.500                  
                                                                                
  21079093.535                       -1708.000          21.750                  
                                                                                
  23014140.230                       -1811.900          35.250                  
                                                                                
  20562957.049   108059010.5861       1017.446          32.500                  
                                                                                
  24944377.655                        1857.350          24.250                  
                                                                                
  23239421.072                       -2825.200          22.250                  
                                                                                
  24071615.255                        3573.600          25.500                  
                                                                                
 21  5 17  2 34 36.4446186  0  7G 1G 4G 7G 9G21G27G30
  21486819.566   112914008.6611       3295.532          35.500                  
                                                                                
  23700274.223                       -2626.750          22.750                  
                                                                                
  21026086.525   110492804.2551       2409.169          33.000                  
                                                                                
  23014528.655                       -1795.450          30.500                  
                                                                                
  20562820.537   108058309.8081       1011.402          28.000                  
                                                                                
  23240013.055   122127092.7361      -2818.828          27.500                  
                                                                                
  24070994.879   126493931.2901       3577.190          25.750                  
                                                                                
 21  5 17  2 34 37.4446187  0  9G 1G 4G 7G 8G 9G16G21G27G30
  21486225.450   112910869.6441       3299.060          33.500                  
                                                                                
  23700783.643                       -2619.200          21.000                  
                                                                                
  21025656.095   110490551.5931       2410.082          26.000                  
                                                                                
  21079822.297                       -1722.300          26.500                  
                                                                                
  23014927.751   120944261.5811      -1784.776          30.250                  
                                                                                
  24296503.935                       -1518.150          21.000                  
                                                                                
  20562673.711   108057458.3801       1008.777          30.500                  
                                                                                
  23240577.037                       -2814.950          22.750                  
                                                                                
  24070394.767                        3590.100          22.750                  
                                                                                
 21  5 17  2 34 38.4446188  0  7G 1G 7G 8G 9G16G21G27
  21485639.696   112907731.2181       3291.707          30.500                  
                                                                                
  21025248.119                        2413.000          25.500                  
                                                                                
  21080181.489   110777100.7611      -1727.412          31.500                  
                                                                                
  23015268.356   120946199.8681      -1779.313          31.250                  
                                                                                
  24296823.854                       -1535.400          25.500                  
                                                                                
  20562516.062   108056607.557        1008.140          31.250                  
                                                                                
  23241126.898   122132945.8511      -2814.937          25.750                  
                                                                                
 21  5 17  2 34 39.4446190  0  6G 1G 7G 8G 9G21G27
  21485061.900   112904756.7761       3292.551          31.750                  
                                                                                
  21024838.206                        2412.850          22.000                  
                                                                                
  21080574.421   110779145.716       -1729.845          32.000                  
                                                                                
  23015669.682   120948294.146       -1776.509          35.000                  
                                                                                
  20562375.363   108055916.4331       1007.151          33.500                  
                                                                                
  23241738.378                       -2811.850          25.000                  
                                                                                
 21  5 17  2 34 40.4446191  0  6G 1G 4G 8G 9G21G27
  21484466.531   112901616.1031       3299.903          27.250                  
                                                                                
  23702409.082                       -2618.250          18.000                  
                                                                                
  21080936.589   110781032.1081      -1730.640          27.750                  
                                                                                
  23016040.545   120950225.108       -1772.989          36.500                  
                                                                                
  20562208.997   108055064.9831       1007.706          32.000                  
                                                                                
  23242302.607                       -2809.350          24.500                  
                                                                                
 21  5 17  2 34 41.4446193  0  7G 1G 7G 8G 9G16G21G27
  21483909.304   112898631.9181       3300.026          29.000                  
                                                                                
  21024018.080                        2424.250          21.500                  
                                                                                
  21081335.400                       -1701.250          24.750                  
                                                                                
  23016428.263   120952311.850       -1770.208          35.500                  
                                                                                
  24297910.012                       -1483.400          19.000                  
                                                                                
  20562087.068   108054373.988        1006.050          34.250                  
                                                                                
  23242928.960   122142415.7531      -2803.931          26.250                  
                                                                                
 21  5 17  2 34 42.4446194  0  6G 1G 7G 8G 9G21G27
  21483297.067   112895489.0891       3300.305          29.500                  
                                                                                
  21023597.111   110479748.4211       2424.410          26.500                  
                                                                                
  21081695.390   110785056.0771      -1696.626          26.500                  
                                                                                
  23016799.645   120954239.413       -1769.272          35.500                  
                                                                                
  20561923.621   108053527.1661       1003.472          34.500                  
                                                                                
  23243520.090                       -2807.200          23.000                  
                                                                                
 21  5 17  2 34 43.4446195  0  6G 1G 4G 7G 8G 9G21
  21482683.183                        3301.550          23.000                  
                                                                                
  23704006.493                       -2609.500          20.250                  
                                                                                
  21023156.806                        2420.350          24.250                  
                                                                                
  21082062.127   110786914.9381      -1703.960          26.750                  
                                                                                
  23017166.682   120956166.368       -1767.676          36.000                  
                                                                                
  20561769.318   108052682.643        1002.326          35.250                  
                                                                                
 21  5 17  2 34 44.4446197  0  5G 1G 7G 8G 9G21
  21482163.931                        3291.700          21.500                  
                                                                                
  21022808.736                        2415.150          23.000                  
                                                                                
  21082451.846                       -1694.900          23.250                  
                                                                                
  23017566.294   120958249.152       -1765.656          36.000                  
                                                                                
  20561639.797   108051996.540        1002.632          32.500                  
                                                                                
 21  5 17  2 34 45.4446198  0  8G 1G 4G 7G 8G 9G16G21G27
  21481519.335                        3303.400          22.250                  
                                                                                
  23705097.684                       -2609.850          24.000                  
                                                                                
  21022338.319                        2424.050          25.250                  
                                                                                
  21082813.353                       -1694.000          24.000                  
                                                                                
  23017927.802   120960171.868       -1768.096          36.000                  
                                                                                
  24299242.566                       -1477.050          18.250                  
                                                                                
  20561476.667   108051150.1421       1000.642          31.750                  
                                                                                
  23245268.217                       -2807.650          19.250                  
                                                                                
 21  5 17  2 34 46.4446200  0  6G 1G 4G 7G 8G 9G27
  21480967.587                        3305.500          20.500                  
                                                                                
  23705644.375                       -2608.550          24.750                  
                                                                                
  21021932.870                        2405.050          32.500                  
                                                                                
  21083192.761                       -1712.050          25.750                  
                                                                                
  23018324.897   120962257.851       -1771.535          35.750                  
                                                                                
  23245789.426                       -2883.950          20.750                  
                                                                                
 21  5 17  2 34 47.4446201  0  7G 1G 4G 7G 8G 9G21G30
  21480368.901                        3297.550          21.250                  
                                                                                
  23706203.188                       -2610.900          22.000                  
                                                                                
  21021499.669   110468725.9321       2405.845          31.000                  
                                                                                
  21083548.014                       -1730.500          26.500                  
                                                                                
  23018690.343   120964185.8471      -1772.957          34.500                  
                                                                                
  20561202.226                         996.350          21.500                  
                                                                                
  24064020.776                        3579.950          16.750                  
                                                                                
 21  5 17  2 34 48.4446203  0  7G 1G 7G 8G 9G16G21G27
  21479819.428                        3263.450          27.500                  
                                                                                
  21021115.682   110466638.3871       2405.537          28.000                  
                                                                                
  21083928.497                       -1725.500          25.500                  
                                                                                
  23019084.317   120966276.579       -1768.854          34.500                  
                                                                                
  24300397.282                       -1472.700          17.750                  
                                                                                
  20561073.063                        1004.700          25.000                  
                                                                                
  23247108.559                       -2797.600          28.000                  
                                                                                
 21  5 17  2 34 49.4446204  0  6G 1G 7G 8G 9G21G27
  21479226.384                        3267.800          28.000                  
                                                                                
  21020661.142   110464383.3441       2415.895          28.500                  
                                                                                
  21084295.988   110798723.1471      -1730.190          29.500                  
                                                                                
  23019452.707   120968197.953       -1769.190          36.500                  
                                                                                
  20560895.531   108048234.6491       1004.195          25.750                  
                                                                                
  23247676.911   122167365.7551      -2797.970          32.000                  
                                                                                
 21  5 17  2 34 50.4446206  0  7G 1G 7G 8G 9G16G21G27
  21478634.539                        3289.700          24.000                  
                                                                                
  21020291.443                        2402.550          28.500                  
                                                                                
  21084701.253   110800778.3421      -1740.793          27.750                  
                                                                                
  23019852.876   120970289.4931      -1778.137          32.500                  
                                                                                
  24300936.800                       -1487.200          19.500                  
                                                                                
  20560758.771                         998.100          23.000                  
                                                                                
  23248262.051                       -2807.250          22.750                  
                                                                                
 21  5 17  2 34 51.4446207  0  8G 1G 7G 8G 9G16G21G22G27
  21478020.871   112867761.3131       3293.232          29.750                  
                                                                                
  21019849.257   110460052.4061       2400.395          31.000                  
                                                                                
  21085039.426   110802674.8751      -1740.998          26.250                  
                                                                                
  23020221.927   120972224.7161      -1777.182          33.250                  
                                                                                
  24301310.348   127704246.8451      -1469.063          28.500                  
                                                                                
  20560595.691                         998.400          23.750                  
                                                                                
  24939466.562                        1843.700          18.250                  
                                                                                
  23248843.656                       -2807.700          25.000                  
                                                                                
 21  5 17  2 34 52.4446208  0  6G 1G 7G 8G 9G16G27
  21477411.606   112864629.2951       3290.940          34.500                  
                                                                                
  21019409.675   110457813.4371       2397.109          26.500                  
                                                                                
  21085434.766                       -1738.100          20.750                  
                                                                                
  23020587.588   120974158.744       -1774.451          37.500                  
                                                                                
  24301622.346   127705873.0321      -1466.955          30.500                  
                                                                                
  23249411.976   122176483.5581      -2806.939          29.250                  
                                                                                
 21  5 17  2 34 53.4446210  0  8G 1G 7G 8G 9G16G21G22G27
  21476849.648   112861647.809        3294.587          36.500                  
                                                                                
  21019023.694   110455726.9941       2400.585          35.250                  
                                                                                
  21085838.739                       -1690.750          23.000                  
                                                                                
  23020983.166   120976244.668       -1771.676          37.500                  
                                                                                
  24301955.867   127707651.8531      -1466.123          29.500                  
                                                                                
  20560326.244                         997.500          23.250                  
                                                                                
  24938848.456                        1852.650          20.750                  
                                                                                
  23249994.325   122179602.0121      -2802.252          29.000                  
                                                                                
 21  5 17  2 34 54.4446211  0  9G 1G 4G 7G 8G 9G16G22G27G30
  21476253.266   112858511.071        3295.319          37.000                  
                                                                                
  23709968.797                       -2617.300          16.750                  
                                                                                
  21018594.297   110453484.536        2401.539          35.750                  
                                                                                
  21086163.320                       -1741.850          31.250                  
                                                                                
  23021350.618   120978173.431       -1769.632          37.500                  
                                                                                
  24302286.144                       -1473.200          23.500                  
                                                                                
  24938512.594                        1843.100          23.000                  
                                                                                
  23250568.933   122182560.3781      -2799.437          26.500                  
                                                                                
  24059485.732                        3576.800          21.750                  
                                                                                
 21  5 17  2 34 55.4446212  0 10G 1G 4G 7G 8G 9G16G21G22G27G30
  21475654.544   112855375.650        3293.841          39.000                  
                                                                                
  23710511.985                       -2602.950          22.750                  
                                                                                
  21018170.054   110451243.458        2398.799          33.750                  
                                                                                
  21086519.737   110810408.3481      -1743.443          33.750                  
                                                                                
  23021723.523   120980102.480       -1770.608          38.500                  
                                                                                
  24302591.297                       -1470.750          24.000                  
                                                                                
  20559997.240                         994.000          24.250                  
                                                                                
  24938202.272                        1846.100          24.250                  
                                                                                
  23251178.674                       -2799.500          22.500                  
                                                                                
  24058823.753                        3577.500          24.000                  
                                                                                
 21  5 17  2 34 56.4446214  0  8G 1G 4G 7G 8G 9G21G27G30
  21475090.600   112852395.6761       3292.475          32.000                  
                                                                                
  23711062.069                       -2610.350          22.250                  
                                                                                
  21017763.501   110449158.6501       2397.397          31.750                  
                                                                                
  21086912.730   110812466.344       -1745.358          33.000                  
                                                                                
  23022117.116   120982186.677       -1770.587          38.750                  
                                                                                
  20559866.497   108042827.1951        989.184          27.500                  
                                                                                
  23251708.073                       -2809.900          25.250                  
                                                                                
  24058215.140   126426773.6671       3572.117          27.750                  
                                                                                
 21  5 17  2 34 57.4446215  0  7G 4G 7G 8G 9G21G22G30
  23711545.937                       -2610.000          22.500                  
                                                                                
  21017354.587   110446919.2251       2396.276          29.000                  
                                                                                
  21087277.581   110814369.288       -1746.063          31.000                  
                                                                                
  23022487.662   120984114.108       -1769.934          38.250                  
                                                                                
  20559691.721   108041994.5531        988.511          29.000                  
                                                                                
  24937577.773                        1854.100          18.750                  
                                                                                
  24057566.992   126423359.4411       3571.297          27.500                  
                                                                                
 21  5 17  2 34 58.4446217  0  7G 1G 4G 7G 8G 9G21G30
  21473966.002                        3302.500          19.750                  
                                                                                
  23712133.750                       -2609.800          21.500                  
                                                                                
  21016949.188   110444838.7461       2395.231          31.500                  
                                                                                
  21087670.528   110816430.916       -1747.113          30.000                  
                                                                                
  23022880.311   120986199.180       -1770.628          36.500                  
                                                                                
  20559576.820   108041321.563         988.480          30.000                  
                                                                                
  24056954.136   126420103.9871       3570.419          28.750                  
                                                                                
 21  5 17  2 34 59.4446218  0  5G 1G 7G 8G 9G21
  21473401.146                        3286.300          21.750                  
                                                                                
  21016553.415                        2394.700          23.750                  
                                                                                
  21088031.432   110818335.476       -1747.029          28.750                  
                                                                                
  23023243.613   120988128.264       -1772.275          36.500                  
                                                                                
  20559413.687   108040488.8751        991.560          28.000                  
                                                                                
 21  5 17  2 35  0.4446219  0  5G 1G 7G 8G 9G21
  21472740.115                        3292.700          23.750                  
                                                                                
  21016090.247                        2405.800          21.500                  
                                                                                
  21088383.999   110820240.0641      -1746.591          27.000                  
                                                                                
  23023613.568   120990058.734       -1773.074          35.750                  
                                                                                
  20559266.200   108039656.4521        989.084          29.750                  
                                                                                
 21  5 17  2 35  1.4446221  0  5G 1G 7G 8G 9G21
  21472168.807                        3270.850          22.500                  
                                                                                
  21015722.498                        2396.450          24.250                  
                                                                                
  21088779.822                       -1736.300          22.750                  
                                                                                
  23024013.587   120992147.839       -1774.314          36.750                  
                                                                                
  20559143.681   108038981.8411        990.012          29.000                  
                                                                                
 21  5 17  2 35  2.4446222  0  7G 1G 4G 7G 8G 9G21G30
  21471587.967                        3289.200          27.500                  
                                                                                
  23714232.817                       -2610.200          19.000                  
                                                                                
  21015281.062                        2395.300          24.500                  
                                                                                
  21089150.823                       -1745.450          23.750                  
                                                                                
  23024378.293   120994080.746       -1776.957          36.000                  
                                                                                
  20558959.467   108038150.0131        987.524          25.750                  
                                                                                
  24054923.861                        3612.050          19.500                  
                                                                                
 21  5 17  2 35  3.4446223  0  8G 1G 4G 7G 8G 9G21G27G30
  21470973.642   112830728.0301       3290.762          35.750                  
                                                                                
  23714769.095                       -2611.750          24.500                  
                                                                                
  21014854.707   110433806.2301       2392.127          29.750                  
                                                                                
  21089521.016                       -1739.150          22.750                  
                                                                                
  23024746.987   120996018.338       -1777.362          37.500                  
                                                                                
  20558807.122   108037324.511         986.301          30.750                  
                                                                                
  23255768.254                       -2881.450          21.500                  
                                                                                
  24054245.080   126405911.0021       3614.230          25.750                  
                                                                                
 21  5 17  2 35  4.4446225  0  6G 1G 4G 9G21G22G27
  21470411.354   112827751.4771       3292.827          28.750                  
                                                                                
  23715329.229   124624895.7561      -2612.204          26.000                  
                                                                                
  23025148.232   120998111.371       -1780.387          37.000                  
                                                                                
  20558682.530   108036651.4501        986.366          29.750                  
                                                                                
  24935464.148                        1851.950          17.250                  
                                                                                
  23256385.350                       -2888.650          22.750                  
                                                                                
 21  5 17  2 35  5.4446226  0  8G 1G 4G 8G 9G21G22G27G30
  21469820.722                        3275.750          27.750                  
                                                                                
  23715844.832   124627664.8481      -2614.399          27.500                  
                                                                                
  21090271.778                       -1742.700          20.000                  
                                                                                
  23025515.437   121000048.725       -1781.775          34.000                  
                                                                                
  20558517.005   108035822.9131        984.188          26.500                  
                                                                                
  24935138.832                        1824.750          25.000                  
                                                                                
  23256973.802   122216221.7191      -2887.722          27.250                  
                                                                                
  24052998.325                        3609.900          19.000                  
                                                                                
 21  5 17  2 35  6.4446228  0  6G 1G 4G 8G 9G21G27
  21469274.188   112821797.0101       3283.662          29.000                  
                                                                                
  23716446.203                       -2618.050          25.000                  
                                                                                
  21090694.473                       -1722.250          24.000                  
                                                                                
  23025912.949   121002146.6841      -1779.179          31.500                  
                                                                                
  20558415.362                         982.900          23.750                  
                                                                                
  23257586.865                       -2888.900          25.250                  
                                                                                
 21  5 17  2 35  7.4446229  0  7G 1G 7G 8G 9G16G21G27
  21468677.137   112818669.5271       3285.580          27.250                  
                                                                                
  21013242.628                        2395.000          20.500                  
                                                                                
  21091012.689                       -1725.950          22.000                  
                                                                                
  23026298.918   121004082.4681      -1780.730          30.750                  
                                                                                
  24306654.347                       -1475.100          14.500                  
                                                                                
  20558245.216   108034307.0161        982.002          25.750                  
                                                                                
  23258154.208                       -2885.250          21.500                  
                                                                                
 21  5 17  2 35  8.4446230  0  5G 1G 4G 8G 9G21
  21468087.463                        3278.900          25.000                  
                                                                                
  23717504.624                       -2614.450          20.500                  
                                                                                
  21091362.564                       -1722.900          20.500                  
                                                                                
  23026651.492   121006021.563       -1781.643          37.750                  
                                                                                
  20558077.350                         979.700          25.500                  
                                                                                
 21  5 17  2 35  9.4446232  0  7G 1G 4G 8G 9G16G21G27
  21467508.112   112812515.5691       3282.045          26.000                  
                                                                                
  23718042.600   124639154.6181      -2619.342          27.500                  
                                                                                
  21091771.329                       -1722.800          22.750                  
                                                                                
  23027048.565   121008117.199       -1781.472          37.000                  
                                                                                
  24307362.622                       -1479.650          20.000                  
                                                                                
  20557961.478   108032816.2701        979.338          27.500                  
                                                                                
  23259555.004                       -2804.000          28.000                  
                                                                                
 21  5 17  2 35 10.4446233  0  5G 4G 7G 8G 9G21
  23718614.095                       -2622.900          20.750                  
                                                                                
  21011965.469                        2390.400          21.000                  
                                                                                
  21092173.741                       -1728.200          22.500                  
                                                                                
  23027418.899   121010058.725       -1781.781          32.750                  
                                                                                
  20557808.975                         977.900          25.000                  
                                                                                
 21  5 17  2 35 11.4446234  0  6G 7G 8G 9G21G27G30
  21011551.135   110416445.5521       2387.716          32.750                  
                                                                                
  21092504.392                       -1736.000          21.000                  
                                                                                
  23027790.022   121011995.980       -1780.129          33.250                  
                                                                                
  20557665.953   108031262.9391        976.599          26.000                  
                                                                                
  23260664.306                       -2807.300          24.000                  
                                                                                
  24048660.687                        3569.150          22.500                  
                                                                                
 21  5 17  2 35 12.4446236  0  8G 1G 7G 8G 9G16G21G22G30
  21465808.394                        3286.350          20.750                  
                                                                                
  21011146.150   110414374.3521       2388.672          33.000                  
                                                                                
  21092980.497                       -1689.250          22.500                  
                                                                                
  23028188.781   121014091.811       -1778.682          34.750                  
                                                                                
  24308381.721                       -1481.200          19.000                  
                                                                                
  20557524.186                         984.150          25.250                  
                                                                                
  24933124.921                        1873.350          16.000                  
                                                                                
  24048023.064   126373213.9821       3570.372          27.000                  
                                                                                
 21  5 17  2 35 13.4446237  0  8G 1G 7G 8G 9G16G21G27G30
  21465148.816   112800117.9211       3279.160          27.500                  
                                                                                
  21010733.601   110412142.414        2387.020          35.500                  
                                                                                
  21093316.830                       -1707.000          21.500                  
                                                                                
  23028553.594   121016027.772       -1781.165          34.500                  
                                                                                
  24308688.375                       -1484.500          23.500                  
                                                                                
  20557390.144                         972.700          23.000                  
                                                                                
  23261837.994                       -2808.200          21.250                  
                                                                                
  24047453.124                        3567.050          21.250                  
                                                                                
 21  5 17  2 35 14.4446238  0  6G 1G 7G 8G 9G21G27
  21464549.016   112796996.130        3278.378          36.750                  
                                                                                
  21010315.475   110409914.7651       2384.222          27.250                  
                                                                                
  21093629.298                       -1750.400          27.250                  
                                                                                
  23028930.218   121017968.294       -1782.922          35.500                  
                                                                                
  20557204.957   108028841.1051        971.502          27.000                  
                                                                                
  23262449.655                       -2811.150          23.500                  
                                                                                
 21  5 17  2 35 15.4446240  0  7G 1G 4G 7G 8G 9G21G22
  21463986.345   112794032.852        3279.163          34.500                  
                                                                                
  23721279.353                       -2614.800          21.000                  
                                                                                
  21009908.097   110407845.522        2383.863          32.750                  
                                                                                
  21094012.172   110849781.2561      -1753.804          33.750                  
                                                                                
  23029325.083   121020066.700       -1782.985          36.000                  
                                                                                
  20557083.880   108028185.7821        970.819          29.000                  
                                                                                
  24932055.950                        1845.150          18.750                  
                                                                                
 21  5 17  2 35 16.4446241  0  5G 1G 7G 8G 9G21
  21463381.994   112790912.0671       3281.136          26.500                  
                                                                                
  21009493.814   110405621.944        2382.245          28.500                  
                                                                                
  21094376.451   110851697.7881      -1759.265          28.000                  
                                                                                
  23029698.955   121022009.0981      -1781.603          32.500                  
                                                                                
  20556939.411                         970.050          25.250                  
                                                                                
 21  5 17  2 35 17.4446242  0  4G 7G 8G 9G21
  21009070.572                        2385.600          24.500                  
                                                                                
  21094742.563                       -1698.800          27.000                  
                                                                                
  23030067.465   121023945.2851      -1782.175          33.000                  
                                                                                
  20556783.884   108026628.3481        970.808          26.500                  
                                                                                
 21  5 17  2 35 18.4446244  0  7G 1G 7G 8G 9G21G27G30
  21462270.176                        3259.000          21.500                  
                                                                                
  21008679.390                        2380.800          22.250                  
                                                                                
  21095137.436                       -1747.750          23.500                  
                                                                                
  23030462.639   121026044.577       -1782.065          36.750                  
                                                                                
  20556657.119   108025975.0481        969.116          26.000                  
                                                                                
  23264761.837                       -2815.500          19.000                  
                                                                                
  24044317.262                        3605.050          18.500                  
                                                                                
 21  5 17  2 35 19.4446245  0  5G 1G 7G 8G 9G16
  21461684.667                        3281.700          22.500                  
                                                                                
  21008265.362   110399179.5111       2380.821          26.000                  
                                                                                
  21095509.165   110857648.3451      -1752.179          26.750                  
                                                                                
  23030834.966   121027982.626       -1782.262          34.750                  
                                                                                
  24310688.542                       -1489.900          17.000                  
                                                                                
 21  5 17  2 35 20.4446246  0  5G 1G 7G 8G 9G16
  21461077.405   112778722.4911       3278.659          27.000                  
                                                                                
  21007822.088   110396959.3901       2377.748          27.500                  
                                                                                
  21095845.051                       -1758.500          25.500                  
                                                                                
  23031202.930   121029922.905       -1782.222          34.750                  
                                                                                
  24310995.648                       -1488.000          22.750                  
                                                                                
 21  5 17  2 35 21.4446248  0  5G 1G 7G 8G 9G21
  21460498.855                        3274.450          25.500                  
                                                                                
  21007424.612   110394895.1391       2379.032          27.500                  
                                                                                
  21096258.214   110861584.2581      -1758.468          28.250                  
                                                                                
  23031598.405   121032020.590       -1782.538          32.500                  
                                                                                
  20556213.279                         968.200          19.000                  
                                                                                
 21  5 17  2 35 22.4446249  0  5G 1G 8G 9G21G27
  21459888.886                        3280.500          22.750                  
                                                                                
  21096627.367   110863497.3381      -1756.001          27.000                  
                                                                                
  23031973.554   121033959.1291      -1781.990          30.000                  
                                                                                
  20556067.688   108022864.1741        968.900          33.750                  
                                                                                
  23267100.779                       -2825.350          17.500                  
                                                                                
 21  5 17  2 35 23.4446250  0  5G 1G 8G 9G21G30
  21459312.750                        3273.100          22.500                  
                                                                                
  21096995.277   110865412.0691      -1757.485          27.500                  
                                                                                
  23032338.467   121035900.183       -1785.012          31.500                  
                                                                                
  20555913.060   108022054.3971        966.698          32.500                  
                                                                                
  24041052.548                        3565.950          17.250                  
                                                                                
 21  5 17  2 35 24.4446252  0  5G 1G 7G 8G 9G21
  21458771.143                        3279.950          22.500                  
                                                                                
  21006161.878                        2387.350          19.250                  
                                                                                
  21097404.312                       -1757.500          25.500                  
                                                                                
  23032738.508   121038002.738       -1788.161          31.500                  
                                                                                
  20555778.572   108021404.9561        964.759          28.500                  
                                                                                
 21  5 17  2 35 25.4446253  0  6G 7G 8G 9G16G21G27
  21005772.101   110386077.3151       2377.937          26.750                  
                                                                                
  21097753.824   110869443.7581      -1755.245          26.750                  
                                                                                
  23033109.905   121039951.060       -1790.977          34.000                  
                                                                                
  24312871.444                       -1478.950          17.750                  
                                                                                
  20555646.017   108020596.6031        967.667          26.500                  
                                                                                
  23269025.584                       -2818.650          20.000                  
                                                                                
 21  5 17  2 35 26.4446254  0  5G 7G 8G 9G16G27
  21005347.708   110383852.080        2383.013          34.500                  
                                                                                
  21098097.798                       -1745.950          24.500                  
                                                                                
  23033486.557   121041899.3041      -1796.113          28.500                  
                                                                                
  24313158.758                       -1482.350          23.750                  
                                                                                
  23269557.228                       -2823.450          21.250                  
                                                                                
 21  5 17  2 35 27.4446256  0  7G 7G 8G 9G16G21G22G27
  21004955.580   110381782.826        2387.103          38.250                  
                                                                                
  21098491.127                       -1746.200          21.750                  
                                                                                
  23033874.189   121044013.0411      -1796.869          27.500                  
                                                                                
  24313511.315   127768363.5901      -1479.827          26.750                  
                                                                                
  20555380.215                         964.750          21.500                  
                                                                                
  24928439.009                        1866.700          13.250                  
                                                                                
  23270161.311                       -2814.250          25.000                  
                                                                                
 21  5 17  2 35 28.4446257  0  6G 7G 8G 9G16G21G27
  21004526.610   110379551.628        2387.927          38.000                  
                                                                                
  21098887.785                       -1734.450          22.500                  
                                                                                
  23034253.759   121045967.3741      -1800.957          28.500                  
                                                                                
  24313841.419                       -1479.350          22.250                  
                                                                                
  20555208.467   108018349.3851        952.020          27.000                  
                                                                                
  23270739.644                       -2824.200          23.750                  
                                                                                
 21  5 17  2 35 29.4446258  0  5G 7G 8G 9G21G27
  21004106.283   110377319.6231       2393.342          29.500                  
                                                                                
  21099219.637   110877146.8701      -1738.988          26.500                  
                                                                                
  23034629.081   121047929.8011      -1807.835          32.500                  
                                                                                
  20555025.575                         963.100          21.500                  
                                                                                
  23271245.675                       -2833.250          26.000                  
                                                                                
 21  5 17  2 35 30.4446260  0  6G 7G 8G 9G16G21G27
  21003714.821                        2391.050          27.750                  
                                                                                
  21099618.728   110879203.479       -1738.608          31.000                  
                                                                                
  23035034.467   121050056.9531      -1810.857          30.250                  
                                                                                
  24314459.939                       -1489.600          20.500                  
                                                                                
  20554950.094                         947.150          22.250                  
                                                                                
  23271889.996                       -2827.000          23.500                  
                                                                                
 21  5 17  2 35 31.4446261  0  7G 7G 8G 9G16G21G27G30
  21003303.334                        2385.750          23.500                  
                                                                                
  21099981.605   110881097.810       -1737.532          31.750                  
                                                                                
  23035478.588                       -1841.650          28.000                  
                                                                                
  24314750.567                       -1491.650          22.500                  
                                                                                
  20554809.620                         962.400          23.250                  
                                                                                
  23272460.030                       -2835.300          23.750                  
                                                                                
  24035959.170                        3544.950          16.000                  
                                                                                
 21  5 17  2 35 32.4446262  0  6G 1G 7G 8G 9G21G27
  21454119.238                        3248.950          17.500                  
                                                                                
  21002862.337                        2378.450          25.250                  
                                                                                
  21100338.655   110882994.9041      -1737.713          29.500                  
                                                                                
  23035850.928                       -1839.300          23.750                  
                                                                                
  20554669.614                         958.250          23.250                  
                                                                                
  23273018.240   122300535.7891      -2842.422          27.500                  
                                                                                
 21  5 17  2 35 33.4446264  0  6G 7G 8G 9G16G21G27
  21002489.579   110368827.6341       2375.407          26.500                  
                                                                                
  21100747.456                       -1735.350          23.000                  
                                                                                
  23036276.518   121056449.8131      -1840.613          26.500                  
                                                                                
  24315443.269                       -1509.900          19.750                  
                                                                                
  20554519.302                         954.550          23.000                  
                                                                                
  23273605.718                       -2849.800          22.000                  
                                                                                
 21  5 17  2 35 34.4446265  0  7G 1G 7G 8G 9G16G21G30
  21452978.811                        3253.000          21.000                  
                                                                                
  21002049.582   110366614.3861       2371.164          27.500                  
                                                                                
  21101095.914   110887006.8731      -1739.053          28.250                  
                                                                                
  23036650.757   121058448.7941      -1837.954          30.500                  
                                                                                
  24315738.663   127780068.6341      -1516.679          28.750                  
                                                                                
  20554356.014                         960.250          24.000                  
                                                                                
  24034023.690                        3551.400          18.500                  
                                                                                
 21  5 17  2 35 35.4446266  0  7G 4G 7G 8G 9G16G21G27
  23732009.587                       -2655.450          23.250                  
                                                                                
  21001643.480   110364400.432        2370.063          28.750                  
                                                                                
  21101460.878   110888903.212       -1739.889          30.500                  
                                                                                
  23037019.619   121060441.969       -1836.691          31.500                  
                                                                                
  24316048.165   127781743.739       -1518.752          30.750                  
                                                                                
  20554251.503                         959.300          25.000                  
                                                                                
  23274732.253                       -2854.000          19.750                  
                                                                                
 21  5 17  2 35 36.4446267  0  7G 1G 4G 7G 8G 9G16G21
  21451854.953                        3247.700          22.500                  
                                                                                
  23732552.159                       -2658.600          24.250                  
                                                                                
  21001214.425   110362188.181        2369.106          27.750                  
                                                                                
  21101813.981   110890801.351       -1740.817          30.500                  
                                                                                
  23037390.110   121062436.906       -1837.521          32.000                  
                                                                                
  24316376.086   127783419.878       -1519.150          29.500                  
                                                                                
  20554113.547                         954.550          24.250                  
                                                                                
 21  5 17  2 35 37.4446269  0  8G 1G 4G 7G 8G 9G16G21G27
  21451271.483                        3244.600          24.500                  
                                                                                
  23733120.192                       -2658.550          25.250                  
                                                                                
  21000838.411   110360134.878        2366.966          29.000                  
                                                                                
  21102195.543   110892857.632       -1742.550          30.500                  
                                                                                
  23037797.154   121064590.015       -1839.473          32.500                  
                                                                                
  24316736.363   127785254.590       -1520.977          29.000                  
                                                                                
  20553958.780                         955.750          24.750                  
                                                                                
  23275957.679                       -2860.300          20.000                  
                                                                                
 21  5 17  2 35 38.4446270  0  8G 1G 4G 7G 8G 9G16G21G30
  21450690.419                        3244.000          24.750                  
                                                                                
  23733651.358                       -2659.500          24.000                  
                                                                                
  21000398.550   110357926.076        2365.400          29.000                  
                                                                                
  21102554.629   110894757.8531      -1744.133          30.250                  
                                                                                
  23038174.827   121066587.456       -1840.699          32.500                  
                                                                                
  24317022.299   127786933.434       -1521.984          29.000                  
                                                                                
  20553802.222                         952.500          25.500                  
                                                                                
  24031492.467                        3555.900          17.500                  
                                                                                
 21  5 17  2 35 39.4446271  0  9G 1G 4G 7G 8G 9G16G21G22G27
  21450117.575   112721128.4321       3246.711          26.500                  
                                                                                
  23734212.329   124724126.6841      -2658.698          26.500                  
                                                                                
  20999989.392   110355720.486        2365.291          30.250                  
                                                                                
  21102928.828   110896661.501       -1743.767          32.000                  
                                                                                
  23038554.123   121068587.842       -1840.632          34.500                  
                                                                                
  24317362.622   127788615.0381      -1521.475          29.500                  
                                                                                
  20553666.175   108010244.2801        952.339          27.500                  
                                                                                
  24924667.794                        1854.100          14.250                  
                                                                                
  23277101.680                       -2859.950          19.500                  
                                                                                
 21  5 17  2 35 40.4446272  0  9G 1G 4G 7G 8G 9G16G21G22G30
  21449542.235   112718039.9731       3244.710          25.750                  
                                                                                
  23734763.009   124726943.4491      -2659.854          27.500                  
                                                                                
  20999565.447   110353512.6731       2364.390          30.000                  
                                                                                
  21103300.233   110898562.714       -1744.543          32.750                  
                                                                                
  23038926.727   121070585.828       -1841.277          34.500                  
                                                                                
  24317674.368   127790294.016       -1522.037          29.250                  
                                                                                
  20553489.859   108009449.3491        951.641          26.500                  
                                                                                
  24924395.844                        1831.000          21.000                  
                                                                                
  24030195.886                        3556.650          19.000                  
                                                                                
 21  5 17  2 35 41.4446274  0  7G 4G 7G 8G 9G16G21G22
  23735344.789   124729916.2181      -2659.409          26.500                  
                                                                                
  20999178.298   110351461.756        2363.268          28.500                  
                                                                                
  21103701.538   110900620.657       -1745.323          31.500                  
                                                                                
  23039343.621   121072740.550       -1842.198          33.500                  
                                                                                
  24318008.819   127792129.589       -1522.973          29.000                  
                                                                                
  20553362.629                         947.250          24.250                  
                                                                                
  24924089.338                        1831.900          21.500                  
                                                                                
 21  5 17  2 35 42.4446275  0  7G 4G 7G 8G 9G16G21G22
  23735855.681   124732734.6771      -2661.784          26.500                  
                                                                                
  20998772.424   110349257.1411       2361.572          28.500                  
                                                                                
  21104060.135   110902525.148       -1746.932          30.500                  
                                                                                
  23039711.511   121074741.236       -1843.559          33.000                  
                                                                                
  24318350.328   127793810.982       -1524.246          27.250                  
                                                                                
  20553210.980                         945.200          25.250                  
                                                                                
  24923775.501                        1833.050          22.500                  
                                                                                
 21  5 17  2 35 43.4446276  0  8G 1G 4G 7G 8G 9G16G21G22
  21447854.348                        3244.400          21.250                  
                                                                                
  23736400.421   124735554.4441      -2662.208          25.750                  
                                                                                
  20998344.038   110347053.6691       2361.085          26.500                  
                                                                                
  21104413.907   110904430.199       -1747.533          29.500                  
                                                                                
  23040103.657   121076743.032       -1844.240          33.000                  
                                                                                
  24318663.629   127795493.2011      -1524.770          26.000                  
                                                                                
  20553056.604   108007041.1951        947.458          26.000                  
                                                                                
  24923459.537                        1833.150          21.000                  
                                                                                
 21  5 17  2 35 44.4446277  0  7G 4G 7G 8G 9G16G21G22
  23736905.193                       -2661.850          25.500                  
                                                                                
  20997903.865   110344852.0921       2359.910          27.000                  
                                                                                
  21104755.293   110906336.681       -1747.843          28.000                  
                                                                                
  23040492.410   121078746.301       -1844.762          34.000                  
                                                                                
  24318990.025   127797176.7791      -1524.983          27.500                  
                                                                                
  20552886.844   108006252.805         946.313          28.000                  
                                                                                
  24923150.973                        1827.050          21.250                  
                                                                                
 21  5 17  2 35 45.4446279  0  8G 4G 7G 8G 9G16G21G22G30
  23737482.099                       -2663.050          25.500                  
                                                                                
  20997522.033   110342806.5491       2359.261          27.250                  
                                                                                
  21105140.331   110908399.196       -1748.486          29.000                  
                                                                                
  23040903.830   121080905.499       -1845.283          33.750                  
                                                                                
  24319339.087   127799016.092       -1525.438          26.500                  
                                                                                
  20552781.121                         945.500          25.500                  
                                                                                
  24922837.194                        1837.700          21.500                  
                                                                                
  24027109.194                        3553.500          17.000                  
                                                                                
 21  5 17  2 35 46.4446280  0  7G 4G 7G 8G 9G16G21G22
  23737992.549                       -2662.050          25.000                  
                                                                                
  20997106.725   110340606.2301       2359.496          27.750                  
                                                                                
  21105535.361   110910306.622       -1748.241          29.500                  
                                                                                
  23041287.468   121082909.638       -1844.938          34.000                  
                                                                                
  24319665.465   127800699.6391      -1524.218          26.000                  
                                                                                
  20552616.739                         945.150          24.000                  
                                                                                
  24922558.591                        1829.200          22.500                  
                                                                                
 21  5 17  2 35 47.4446281  0  7G 4G 7G 8G 9G16G21G22
  23738538.592                       -2656.750          25.000                  
                                                                                
  20996681.140   110338401.448        2362.548          27.500                  
                                                                                
  21105896.132   110912209.423       -1744.950          29.250                  
                                                                                
  23041666.526   121084909.170       -1841.856          35.000                  
                                                                                
  24320011.846   127802378.9091      -1521.419          25.750                  
                                                                                
  20552487.949                         948.250          24.250                  
                                                                                
  24922220.246                        1832.300          20.500                  
                                                                                
 21  5 17  2 35 48.4446283  0  8G 4G 7G 8G 9G16G21G22G27
  23739135.909   124750000.3461      -2661.700          27.000                  
                                                                                
  20996287.043   110336357.7441       2358.763          26.500                  
                                                                                
  21106289.590   110914273.528       -1748.957          29.500                  
                                                                                
  23042075.274   121087070.025       -1845.823          34.500                  
                                                                                
  24320362.734                       -1524.950          24.500                  
                                                                                
  20552353.472                         941.800          24.250                  
                                                                                
  24921940.670                        1831.200          23.000                  
                                                                                
  23282310.662                       -2863.750          19.750                  
                                                                                
 21  5 17  2 35 49.4446284  0  9G 1G 4G 7G 8G 9G16G21G22G27
  21444232.949                        3238.500          16.000                  
                                                                                
  23739679.944   124752819.1921      -2665.212          27.250                  
                                                                                
  20995853.456                        2353.000          25.250                  
                                                                                
  21106641.459   110916180.227       -1752.318          28.500                  
                                                                                
  23042463.717   121089073.451       -1849.133          35.500                  
                                                                                
  24320668.734                       -1526.050          25.500                  
                                                                                
  20552193.295                         939.450          25.250                  
                                                                                
  24921626.699                        1830.050          22.750                  
                                                                                
  23282904.763                       -2864.600          24.000                  
                                                                                
 21  5 17  2 35 50.4446285  0  8G 4G 7G 8G 9G16G21G22G27
  23740237.212   124755642.1881      -2664.847          27.500                  
                                                                                
  20995446.291                        2353.050          25.500                  
                                                                                
  21106978.979   110918090.327       -1752.300          27.750                  
                                                                                
  23042834.214   121091080.257       -1848.815          35.000                  
                                                                                
  24321000.258                       -1526.200          23.750                  
                                                                                
  20552057.143                         937.400          25.000                  
                                                                                
  24921283.091                        1823.500          22.500                  
                                                                                
  23283463.530                       -2866.450          25.000                  
                                                                                
 21  5 17  2 35 51.4446286  0  9G 1G 4G 7G 8G 9G16G21G22G27
  21443036.703                        3231.750          20.500                  
                                                                                
  23740768.416   124758465.2181      -2663.844          27.500                  
                                                                                
  20995020.258   110329575.3051       2354.045          25.750                  
                                                                                
  21107349.494   110920000.2071      -1751.304          28.750                  
                                                                                
  23043216.421   121093087.469       -1848.145          34.750                  
                                                                                
  24321315.012                       -1528.200          21.000                  
                                                                                
  20551910.816   108001019.3271        939.771          26.750                  
                                                                                
  24920965.583                        1830.000          25.000                  
                                                                                
  23284045.099                       -2859.750          25.000                  
                                                                                
 21  5 17  2 35 52.4446288  0  9G 4G 7G 8G 9G16G21G22G27G30
  23741327.882   124761442.9211      -2664.110          27.250                  
                                                                                
  20994647.669   110327535.604        2354.208          25.750                  
                                                                                
  21107754.267   110922066.101       -1752.576          29.500                  
                                                                                
  23043642.179   121095250.067       -1849.253          34.250                  
                                                                                
  24321650.233                       -1527.000          22.250                  
                                                                                
  20551808.940   108000393.4281        939.250          25.750                  
                                                                                
  24920698.820                        1824.450          24.500                  
                                                                                
  23284622.552                       -2866.600          25.000                  
                                                                                
  24022633.038                        3550.250          15.500                  
                                                                                
 21  5 17  2 35 53.4446289  0  8G 1G 4G 7G 8G 9G21G22G27
  21441965.765                        3232.900          21.000                  
                                                                                
  23741849.389   124764264.8541      -2665.370          26.500                  
                                                                                
  20994219.434   110325339.216        2352.974          26.000                  
                                                                                
  21108127.976   110923975.978       -1753.469          29.250                  
                                                                                
  23044018.587   121097256.659       -1850.069          33.500                  
                                                                                
  20551668.505   107999610.6401        937.595          25.750                  
                                                                                
  24920387.804                        1824.650          24.750                  
                                                                                
  23285197.123                       -2864.100          25.000                  
                                                                                
 21  5 17  2 35 54.4446290  0 10G 1G 4G 7G 8G 9G16G21G22G27G30
  21441389.427                        3237.200          25.000                  
                                                                                
  23742386.480   124767089.1851      -2665.671          25.750                  
                                                                                
  20993816.975   110323145.8141       2351.691          25.750                  
                                                                                
  21108494.785   110925888.597       -1754.376          29.500                  
                                                                                
  23044403.084   121099265.485       -1850.996          33.000                  
                                                                                
  24322340.986                       -1533.400          19.750                  
                                                                                
  20551496.287   107998833.3351        935.880          26.000                  
                                                                                
  24920059.094                        1832.000          25.500                  
                                                                                
  23285751.302                       -2867.250          25.000                  
                                                                                
  24021296.294                        3543.100          20.500                  
                                                                                
 21  5 17  2 35 55.4446291  0 10G 1G 4G 7G 8G 9G16G21G22G27G30
  21440797.352                        3232.200          25.500                  
                                                                                
  23742924.922                       -2666.750          25.500                  
                                                                                
  20993374.796                        2352.100          24.250                  
                                                                                
  21108852.153   110927802.101       -1754.234          30.250                  
                                                                                
  23044782.037   121101276.3341      -1852.026          31.000                  
                                                                                
  24322675.569                       -1535.550          21.000                  
                                                                                
  20551357.499   107998056.9221        935.578          26.000                  
                                                                                
  24919744.627                        1828.500          25.500                  
                                                                                
  23286378.783                       -2868.300          24.500                  
                                                                                
  24020652.356                        3546.250          21.500                  
                                                                                
 21  5 17  2 35 56.4446292  0 10G 1G 4G 7G 8G 9G16G21G22G27G30
  21440192.915                        3235.200          25.000                  
                                                                                
  23743477.984                       -2665.950          25.250                  
                                                                                
  20992979.314                        2348.450          25.250                  
                                                                                
  21109217.844   110929713.6421      -1755.102          30.500                  
                                                                                
  23045160.918   121103284.974       -1851.831          30.500                  
                                                                                
  24322994.792                       -1530.150          21.500                  
                                                                                
  20551189.859                         931.150          24.250                  
                                                                                
  24919418.097                        1829.750          24.500                  
                                                                                
  23286931.544                       -2863.650          23.250                  
                                                                                
  24020006.847                        3540.600          21.250                  
                                                                                
 21  5 17  2 35 57.4446294  0 10G 1G 4G 7G 8G 9G16G21G22G27G30
  21439638.169   112666058.1501       3230.793          26.750                  
                                                                                
  23744053.455   124775842.4571      -2667.437          26.500                  
                                                                                
  20992582.259   110316764.0901       2349.430          27.500                  
                                                                                
  21109613.141   110931783.700       -1755.946          31.500                  
                                                                                
  23045580.498   121105451.716       -1852.861          31.000                  
                                                                                
  24323364.307                       -1527.000          22.500                  
                                                                                
  20551106.087   107996791.3011        932.991          25.750                  
                                                                                
  24919131.066                        1829.350          25.500                  
                                                                                
  23287597.853                       -2869.650          25.250                  
                                                                                
  24019390.344                        3541.500          21.500                  
                                                                                
 21  5 17  2 35 58.4446295  0 10G 1G 4G 7G 8G 9G16G21G22G27G30
  21439057.911   112662986.4131       3229.493          27.250                  
                                                                                
  23744579.732   124778667.7011      -2667.435          26.500                  
                                                                                
  20992146.502   110314574.0161       2347.793          27.000                  
                                                                                
  21109981.126   110933698.760       -1757.255          32.250                  
                                                                                
  23045963.174   121107463.438       -1854.049          30.750                  
                                                                                
  24323670.835                       -1530.250          22.500                  
                                                                                
  20550930.249                         931.050          25.000                  
                                                                                
  24918811.628                        1826.750          25.000                  
                                                                                
  23288262.034                       -2867.350          24.000                  
                                                                                
  24018726.144                        3541.800          22.750                  
                                                                                
 21  5 17  2 35 59.4446296  0  9G 1G 4G 7G 8G 9G16G21G22G30
  21438455.522   112659914.6331       3228.363          27.500                  
                                                                                
  23745122.850   124781493.0491      -2668.680          27.500                  
                                                                                
  20991738.079   110312383.9331       2346.595          27.750                  
                                                                                
  21110343.470   110935613.657       -1758.242          33.000                  
                                                                                
  23046349.201   121109475.026       -1855.048          32.000                  
                                                                                
  24323971.122                       -1530.550          24.500                  
                                                                                
  20550774.851                         931.900          24.250                  
                                                                                
  24918482.050   130947506.6721       1826.405          26.000                  
                                                                                
  24018088.080                        3539.300          23.500                  
                                                                                
 21  5 17  2 36  0.4446297  0  9G 1G 4G 7G 8G 9G16G21G22G30
  21437895.434   112656845.480        3227.604          26.000                  
                                                                                
  23745650.709   124784321.0521      -2668.797          26.500                  
                                                                                
  20991320.991   110310197.0431       2345.937          26.750                  
                                                                                
  21110706.742   110937531.552       -1758.766          31.000                  
                                                                                
  23046734.358   121111489.591       -1855.465          31.250                  
                                                                                
  24324260.345                       -1535.150          23.500                  
                                                                                
  20550655.458                         935.400          22.500                  
                                                                                
  24918147.706                        1826.150          25.000                  
                                                                                
  24017443.151                        3546.950          22.500                  
                                                                                
 21  5 17  2 36  1.4446298  0 10G 1G 4G 7G 8G 9G16G21G22G27G30
  21437283.716   112653773.1491       3227.356          26.000                  
                                                                                
  23746171.307                       -2667.050          24.000                  
                                                                                
  20990919.128   110308006.494        2345.738          28.000                  
                                                                                
  21111077.744   110939445.565       -1758.977          31.250                  
                                                                                
  23047125.746   121113500.275       -1855.571          31.250                  
                                                                                
  24324583.980                       -1531.100          23.000                  
                                                                                
  20550500.923                         928.050          23.250                  
                                                                                
  24917833.682                        1829.350          24.250                  
                                                                                
  23290011.600                       -2869.400          23.000                  
                                                                                
  24016816.743                        3537.750          22.000                  
                                                                                
 21  5 17  2 36  2.4446300  0 10G 1G 4G 7G 8G 9G16G21G22G27G30
  21436717.063   112650860.4721       3227.907          27.000                  
                                                                                
  23746652.128                       -2669.450          22.000                  
                                                                                
  20990533.849   110305975.2671       2346.196          28.250                  
                                                                                
  21111473.124   110941519.087       -1758.027          32.000                  
                                                                                
  23047537.915   121115670.480       -1854.739          31.750                  
                                                                                
  24324963.471                       -1533.600          21.500                  
                                                                                
  20550433.424                         929.050          22.000                  
                                                                                
  24917581.510   130942774.1361       1827.675          26.000                  
                                                                                
  23290561.673                       -2865.650          25.000                  
                                                                                
  24016220.709                        3541.250          23.250                  
                                                                                
 21  5 17  2 36  3.4446301  0  9G 1G 7G 8G 9G16G21G22G27G30
  21436154.286   112647789.6661       3227.078          26.500                  
                                                                                
  20990108.377   110303786.4901       2345.163          29.500                  
                                                                                
  21111829.811   110943434.405       -1758.939          31.500                  
                                                                                
  23047930.577   121117682.521       -1855.550          30.500                  
                                                                                
  24325227.223                       -1535.750          24.000                  
                                                                                
  20550269.971                         932.300          22.250                  
                                                                                
  24917221.993                        1826.650          24.500                  
                                                                                
  23291078.449   122395443.2801      -2866.903          26.500                  
                                                                                
  24015554.205                        3543.800          23.000                  
                                                                                
 21  5 17  2 36  4.4446302  0  9G 1G 4G 7G 8G 9G16G22G27G30
  21435557.113                        3222.650          25.500                  
                                                                                
  23747733.726                       -2672.150          20.250                  
                                                                                
  20989688.681   110301601.580        2343.440          28.000                  
                                                                                
  21112204.565   110945353.380       -1760.451          31.250                  
                                                                                
  23048309.528   121119698.157       -1857.062          30.500                  
                                                                                
  24325543.217                       -1535.700          23.500                  
                                                                                
  24916954.891                        1829.050          21.500                  
                                                                                
  23291631.579   122398470.8841      -2869.053          26.500                  
                                                                                
  24014917.159                        3539.050          23.000                  
                                                                                
 21  5 17  2 36  5.4446304  0 10G 1G 4G 7G 8G 9G16G21G22G27G30
  21435017.857   112641779.0881       3225.479          26.000                  
                                                                                
  23748350.470                       -2671.100          22.500                  
                                                                                
  20989307.716   110299572.702        2343.059          27.750                  
                                                                                
  21112590.169   110947428.113       -1760.540          30.500                  
                                                                                
  23048733.505   121121869.599       -1857.057          31.000                  
                                                                                
  24325900.940                       -1536.000          23.000                  
                                                                                
  20549955.573                         924.850          19.500                  
                                                                                
  24916617.096                        1825.600          22.250                  
                                                                                
  23292225.539   122401654.3921      -2869.215          27.750                  
                                                                                
  24014285.567                        3539.250          25.250                  
                                                                                
 21  5 17  2 36  6.4446305  0  8G 1G 4G 7G 8G 9G16G27G30
  21434441.894   112638712.8741       3225.553          26.500                  
                                                                                
  23748930.207                       -2673.250          24.500                  
                                                                                
  20988899.636   110297388.652        2343.111          30.000                  
                                                                                
  21112951.657   110949347.128       -1760.421          29.750                  
                                                                                
  23049105.186   121123885.206       -1856.850          31.250                  
                                                                                
  24326235.447                       -1537.150          25.250                  
                                                                                
  23292800.179   122404682.407       -2868.724          27.500                  
                                                                                
  24013644.549                        3537.250          23.500                  
                                                                                
 21  5 17  2 36  7.4446306  0 10G 1G 4G 7G 8G 9G16G21G22G27G30
  21433861.158   112635643.0001       3224.901          29.250                  
                                                                                
  23749465.598                       -2667.550          24.750                  
                                                                                
  20988489.782   110295201.630        2342.425          29.750                  
                                                                                
  21113299.978   110951262.7931      -1760.579          29.750                  
                                                                                
  23049496.976   121125898.076       -1857.260          32.000                  
                                                                                
  24326536.700                       -1533.500          24.750                  
                                                                                
  20549698.551                         926.850          19.750                  
                                                                                
  24915969.145                        1828.600          20.250                  
                                                                                
  23293369.747   122407706.3791      -2868.798          28.750                  
                                                                                
  24013002.356                        3539.450          25.500                  
                                                                                
 21  5 17  2 36  8.4446307  0  8G 1G 4G 7G 8G 9G16G27G30
  21433294.008   112632578.108        3223.609          29.250                  
                                                                                
  23749987.894                       -2670.700          23.000                  
                                                                                
  20988059.637   110293019.144        2341.035          30.500                  
                                                                                
  21113669.679   110953183.320       -1761.773          30.000                  
                                                                                
  23049865.179   121127915.279       -1858.665          31.500                  
                                                                                
  24326881.818                       -1535.800          24.750                  
                                                                                
  23293953.500   122410734.983       -2869.854          30.250                  
                                                                                
  24012349.165                        3537.450          24.750                  
                                                                                
 21  5 17  2 36  9.4446308  0 10G 1G 4G 7G 8G 9G16G21G22G27G30
  21432712.704   112629511.340        3222.716          29.000                  
                                                                                
  23750534.109                       -2669.950          22.250                  
                                                                                
  20987642.919   110290834.851        2340.000          30.000                  
                                                                                
  21114047.711   110955101.806       -1762.582          30.000                  
                                                                                
  23050248.307   121129930.423       -1859.263          31.750                  
                                                                                
  24327165.716                       -1536.050          23.750                  
                                                                                
  20549433.285                         915.900          19.500                  
                                                                                
  24915335.134                        1822.000          18.750                  
                                                                                
  23294544.984   122413761.327       -2870.303          30.000                  
                                                                                
  24011695.611                        3539.650          24.500                  
                                                                                
 21  5 17  2 36 10.4446309  0  9G 1G 4G 7G 8G 9G16G21G27G30
  21432117.488   112626449.0251       3222.191          29.250                  
                                                                                
  23751032.837                       -2669.100          23.500                  
                                                                                
  20987244.068   110288655.084        2339.758          32.500                  
                                                                                
  21114422.924   110957024.608       -1762.631          31.000                  
                                                                                
  23050634.612   121131949.867       -1859.393          33.250                  
                                                                                
  24327495.959                       -1537.500          25.250                  
                                                                                
  20549265.874                         919.300          21.500                  
                                                                                
  23295141.444   122416791.765       -2870.402          31.500                  
                                                                                
  24011053.328   126178936.4031       3539.609          25.750                  
                                                                                
 21  5 17  2 36 11.4446311  0  7G 1G 7G 8G 9G16G27G30
  21431522.461   112623541.7291       3223.422          27.000                  
                                                                                
  20986862.193   110286630.451        2340.417          32.500                  
                                                                                
  21114822.308   110959102.306       -1761.775          31.000                  
                                                                                
  23051042.991   121134124.236       -1858.361          32.000                  
                                                                                
  24327847.677                       -1535.350          23.000                  
                                                                                
  23295750.383   122419976.837       -2868.957          30.250                  
                                                                                
  24010454.704   126175712.2571       3539.562          26.000                  
                                                                                
 21  5 17  2 36 12.4446312  0  9G 1G 4G 7G 8G 9G16G22G27G30
  21430936.345   112620474.7321       3223.282          28.000                  
                                                                                
  23752109.730                       -2668.000          20.500                  
                                                                                
  20986446.359   110284445.582        2340.453          34.000                  
                                                                                
  21115184.135   110961020.093       -1761.738          32.750                  
                                                                                
  23051421.306   121136138.177       -1858.263          33.000                  
                                                                                
  24328185.521   127845476.8291      -1530.709          25.750                  
                                                                                
  24914454.255                        1828.750          18.500                  
                                                                                
  23296317.268   122423001.748       -2868.620          30.500                  
                                                                                
  24009826.616   126172327.6001       3539.804          27.000                  
                                                                                
 21  5 17  2 36 13.4446313  0  8G 1G 4G 7G 8G 9G16G27G30
  21430357.830   112617409.8571       3221.368          27.500                  
                                                                                
  23752663.831                       -2666.500          22.000                  
                                                                                
  20986018.640   110282263.933        2338.878          33.000                  
                                                                                
  21115542.472   110962940.411       -1763.033          30.750                  
                                                                                
  23051804.226   121138155.107       -1859.600          33.000                  
                                                                                
  24328481.501                       -1531.400          24.500                  
                                                                                
  23296901.649   122426029.027       -2870.012          28.750                  
                                                                                
  24009165.059   126168946.3081       3538.489          27.000                  
                                                                                
 21  5 17  2 36 14.4446314  0  9G 1G 4G 7G 8G 9G16G22G27G30
  21429771.646   112614347.5471       3221.135          27.250                  
                                                                                
  23753234.546                       -2668.650          24.250                  
                                                                                
  20985598.840   110280084.597        2338.086          31.750                  
                                                                                
  21115901.534   110964862.722       -1763.465          29.000                  
                                                                                
  23052197.464   121140174.094       -1860.178          32.250                  
                                                                                
  24328792.595                       -1533.550          25.500                  
                                                                                
  24913830.982                        1832.150          18.750                  
                                                                                
  23297456.175   122429057.4261      -2869.924          26.500                  
                                                                                
  24008525.212   126165566.9741       3538.464          26.500                  
                                                                                
 21  5 17  2 36 15.4446316  0  9G 1G 4G 7G 8G 9G16G21G27G30
  21429233.198   112611441.1781       3221.130          27.250                  
                                                                                
  23753780.747                       -2660.400          23.000                  
                                                                                
  20985223.180   110278061.102        2338.307          32.500                  
                                                                                
  21116286.447   110966940.715       -1763.049          29.500                  
                                                                                
  23052603.063   121142348.690       -1859.647          32.750                  
                                                                                
  24329157.722                       -1532.800          23.250                  
                                                                                
  20548594.652                         920.300          16.250                  
                                                                                
  23298031.756                       -2868.750          25.000                  
                                                                                
  24007903.122                        3539.150          25.500                  
                                                                                
 21  5 17  2 36 16.4446317  0  8G 1G 4G 7G 8G 9G16G27G30
  21428633.188                        3219.750          25.250                  
                                                                                
  23754352.626                       -2667.200          23.250                  
                                                                                
  20984819.534   110275878.847        2336.808          32.000                  
                                                                                
  21116659.863   110968859.720       -1764.293          30.000                  
                                                                                
  23052981.275   121144364.377       -1861.068          31.750                  
                                                                                
  24329471.779                       -1538.350          23.250                  
                                                                                
  23298600.636                       -2874.350          24.500                  
                                                                                
  24007246.751                        3537.750          25.250                  
                                                                                
 21  5 17  2 36 17.4446318  0  7G 1G 7G 8G 9G16G27G30
  21428045.229                        3218.850          25.000                  
                                                                                
  20984406.953   110273700.124        2335.969          32.000                  
                                                                                
  21117039.634   110970782.034       -1765.082          30.500                  
                                                                                
  23053372.139   121146383.278       -1861.593          32.500                  
                                                                                
  24329805.083                       -1536.350          22.500                  
                                                                                
  23299178.570                       -2870.000          23.500                  
                                                                                
  24006613.224                        3534.450          25.000                  
                                                                                
 21  5 17  2 36 18.4446319  0  9G 1G 4G 7G 8G 9G16G21G27G30
  21427446.464                        3218.900          24.500                  
                                                                                
  23755411.947                       -2673.550          21.000                  
                                                                                
  20983986.865   110271524.158        2335.934          32.500                  
                                                                                
  21117405.001   110972706.931       -1764.627          31.250                  
                                                                                
  23053748.598   121148404.795       -1861.308          33.000                  
                                                                                
  24330138.672                       -1537.750          24.750                  
                                                                                
  20548255.915                         915.100          19.500                  
                                                                                
  23299814.351                       -2868.950          24.250                  
                                                                                
  24005965.592   126152200.5431       3537.710          26.000                  
                                                                                
 21  5 17  2 36 19.4446320  0 10G 1G 4G 7G 8G 9G16G21G22G27G30
  21426842.322                        3216.750          21.500                  
                                                                                
  23755965.304                       -2675.150          21.250                  
                                                                                
  20983570.992   110269344.737        2334.485          32.250                  
                                                                                
  21117766.491   110974628.110       -1766.012          29.750                  
                                                                                
  23054136.170   121150422.589       -1862.629          32.500                  
                                                                                
  24330467.784                       -1534.250          23.500                  
                                                                                
  20548109.256                         916.300          23.500                  
                                                                                
  24912234.835                        1831.900          16.500                  
                                                                                
  23300440.257                       -2871.400          23.000                  
                                                                                
  24005348.260                        3534.050          25.500                  
                                                                                
 21  5 17  2 36 20.4446322  0  8G 1G 7G 8G 9G16G21G27G30
  21426340.721                        3216.650          24.250                  
                                                                                
  20983188.709   110267327.110        2334.284          32.000                  
                                                                                
  21118169.963   110976710.860       -1766.020          30.500                  
                                                                                
  23054542.041   121152601.921       -1862.616          32.750                  
                                                                                
  24330816.095                       -1534.500          25.000                  
                                                                                
  20547926.635                         911.100          25.500                  
                                                                                
  23301023.006   122447701.6101      -2870.952          26.250                  
                                                                                
  24004717.148   126145639.4691       3536.378          25.750                  
                                                                                
 21  5 17  2 36 21.4446323  0  8G 1G 7G 8G 9G16G21G27G30
  21425740.969                        3216.800          22.250                  
                                                                                
  20982771.230   110265149.261        2334.124          31.500                  
                                                                                
  21118539.440   110978633.164       -1766.015          31.750                  
                                                                                
  23054940.298   121154620.882       -1862.747          33.000                  
                                                                                
  24331137.605                       -1537.900          22.500                  
                                                                                
  20547775.672   107979288.9991        913.016          26.000                  
                                                                                
  23301599.939   122450728.6021      -2871.153          27.500                  
                                                                                
  24004110.501                        3539.550          24.000                  
                                                                                
 21  5 17  2 36 22.4446324  0  8G 1G 7G 8G 9G16G21G27G30
  21425127.162                        3212.600          22.000                  
                                                                                
  20982354.987   110262975.162        2331.283          30.750                  
                                                                                
  21118902.957   110980559.041       -1768.441          30.000                  
                                                                                
  23055317.005   121156643.296       -1865.074          32.750                  
                                                                                
  24331474.740                       -1538.800          22.750                  
                                                                                
  20547645.430   107978535.8841        910.548          26.250                  
                                                                                
  23302179.306   122453759.2751      -2872.663          27.750                  
                                                                                
  24003445.430                        3535.350          24.250                  
                                                                                
 21  5 17  2 36 23.4446325  0  9G 4G 7G 8G 9G16G21G22G27G30
  23758115.058                       -2670.000          18.500                  
                                                                                
  20981956.853   110260800.628        2330.152          32.500                  
                                                                                
  21119267.494   110982484.269       -1769.582          32.250                  
                                                                                
  23055706.725   121158665.171       -1866.172          32.250                  
                                                                                
  24331815.594                       -1540.000          24.500                  
                                                                                
  20547518.908                         910.100          24.250                  
                                                                                
  24911024.815                        1827.150          18.750                  
                                                                                
  23302759.095   122456788.5361      -2875.472          27.500                  
                                                                                
  24002807.761                        3534.900          22.500                  
                                                                                
 21  5 17  2 36 24.4446326  0  8G 1G 7G 8G 9G16G21G27G30
  21424026.669                        3217.250          23.250                  
                                                                                
  20981530.903   110258628.176        2330.538          34.000                  
                                                                                
  21119637.494   110984411.603       -1769.429          31.750                  
                                                                                
  23056094.712   121160689.272       -1866.542          31.750                  
                                                                                
  24332134.628   127866229.6301      -1538.001          27.000                  
                                                                                
  20547294.119                         907.650          25.250                  
                                                                                
  23303321.261   122459822.8111      -2874.583          26.000                  
                                                                                
  24002134.482                        3532.300          24.750                  
                                                                                
 21  5 17  2 36 25.4446327  0  9G 1G 4G 7G 8G 9G16G21G27G30
  21423504.847                        3215.750          23.750                  
                                                                                
  23759248.446                       -2676.500          19.500                  
                                                                                
  20981128.398   110256453.3451       2331.335          28.250                  
                                                                                
  21119977.575                       -1765.850          23.500                  
                                                                                
  23056479.762   121162712.3451      -1866.696          30.750                  
                                                                                
  24332463.317                       -1533.200          25.500                  
                                                                                
  20547190.207                         911.700          23.000                  
                                                                                
  23303834.023                       -2871.100          24.500                  
                                                                                
  24001541.610                        3533.600          21.250                  
                                                                                
 21  5 17  2 36 26.4446329  0 10G 1G 4G 7G 8G 9G16G21G22G27G30
  21422887.197   112578032.0561       3216.749          27.500                  
                                                                                
  23759839.559                       -2661.650          21.750                  
                                                                                
  20980737.691   110254438.2751       2334.373          29.750                  
                                                                                
  21120404.102   110988472.4441      -1766.338          29.750                  
                                                                                
  23056893.698   121164896.3661      -1864.462          27.000                  
                                                                                
  24332805.603                       -1531.150          25.500                  
                                                                                
  20547055.823                         918.200          23.500                  
                                                                                
  24910040.092                        1829.000          18.750                  
                                                                                
  23304425.435                       -2869.700          25.000                  
                                                                                
  24000885.586                        3532.600          21.250                  
                                                                                
 21  5 17  2 36 27.4446330  0  7G 1G 7G 8G 9G16G21G27
  21422301.569   112574970.0391       3216.993          26.750                  
                                                                                
  20980326.842   110252258.3501       2334.371          29.000                  
                                                                                
  21120781.108   110990393.0851      -1766.357          29.000                  
                                                                                
  23057279.398   121166916.9881      -1864.943          28.750                  
                                                                                
  24333128.945                       -1533.250          21.500                  
                                                                                
  20546936.072                         910.150          25.500                  
                                                                                
  23305024.887                       -2867.650          23.500                  
                                                                                
 21  5 17  2 36 28.4446331  0  8G 1G 7G 8G 9G16G21G27G30
  21421723.144   112571911.7861       3217.889          26.500                  
                                                                                
  20979928.892                        2330.300          23.500                  
                                                                                
  21121141.632   110992318.0321      -1767.185          27.500                  
                                                                                
  23057649.216   121168939.5541      -1862.796          26.250                  
                                                                                
  24333468.485                       -1532.200          22.000                  
                                                                                
  20546801.640   107974170.7091        909.233          26.750                  
                                                                                
  23305601.562                       -2867.550          25.000                  
                                                                                
  23999597.719                        3539.050          19.500                  
                                                                                
 21  5 17  2 36 29.4446332  0  7G 1G 7G 8G 9G16G21G27
  21421141.132   112568854.0791       3213.515          26.500                  
                                                                                
  20979481.486   110247918.7881       2333.473          27.250                  
                                                                                
  21121480.582   110994243.0731      -1767.804          28.500                  
                                                                                
  23058062.514                       -1867.650          24.000                  
                                                                                
  24333781.053   127874882.2981      -1530.062          26.500                  
                                                                                
  20546654.626                         904.900          25.000                  
                                                                                
  23306177.648                       -2861.000          22.250                  
                                                                                
 21  5 17  2 36 30.4446333  0  7G 1G 7G 8G 9G16G21G27
  21420545.874   112565798.6491       3208.843          30.000                  
                                                                                
  20979098.182   110245739.0921       2335.110          26.000                  
                                                                                
  21121861.749   110996168.7591      -1770.834          31.500                  
                                                                                
  23058414.301                       -1871.050          23.250                  
                                                                                
  24334095.366                       -1522.700          25.250                  
                                                                                
  20546499.764   107972584.5771        902.519          26.500                  
                                                                                
  23306741.688                       -2855.100          23.500                  
                                                                                
 21  5 17  2 36 31.4446335  0  9G 1G 4G 7G 8G 9G16G21G27G30
  21419996.082   112562905.1741       3208.344          34.000                  
                                                                                
  23762511.093                       -2666.100          16.750                  
                                                                                
  20978700.685   110243717.4371       2338.859          27.500                  
                                                                                
  21122260.200   110998255.1751      -1770.952          27.000                  
                                                                                
  23058817.849                       -1852.150          21.250                  
                                                                                
  24334438.056   127878334.6791      -1516.605          27.000                  
                                                                                
  20546357.689                         904.800          25.250                  
                                                                                
  23307379.674   122481105.9471      -2857.308          26.250                  
                                                                                
  23997687.483                        3524.900          19.000                  
                                                                                
 21  5 17  2 36 32.4446336  0  7G 1G 7G 8G 9G16G21G27
  21419420.053   112559857.465        3207.187          34.500                  
                                                                                
  20978290.441                        2335.150          25.000                  
                                                                                
  21122642.308   111000186.8651      -1773.231          25.750                  
                                                                                
  23059166.080                       -1838.300          23.000                  
                                                                                
  24334762.004   127880007.8501      -1511.774          28.000                  
                                                                                
  20546260.129                         894.000          24.000                  
                                                                                
  23307952.749                       -2852.400          25.000                  
                                                                                
 21  5 17  2 36 33.4446337  0  7G 1G 7G 8G 9G16G21G27
  21418841.858   112556807.2481       3206.161          31.250                  
                                                                                
  20977877.731   110239491.3391       2339.028          28.500                  
                                                                                
  21122991.071                       -1765.050          25.000                  
                                                                                
  23059557.414                       -1844.650          25.250                  
                                                                                
  24335094.878                       -1513.950          24.500                  
                                                                                
  20546095.947                         897.950          24.000                  
                                                                                
  23308479.889                       -2860.850          22.500                  
                                                                                
 21  5 17  2 36 34.4446338  0  6G 1G 7G 8G 9G21G27
  21418265.775   112553758.0191       3204.539          27.500                  
                                                                                
  20977436.555   110237309.765        2337.709          29.250                  
                                                                                
  21123353.939   111003973.2091      -1775.567          27.000                  
                                                                                
  23059936.470   121180783.2021      -1842.132          33.500                  
                                                                                
  20545958.761                         908.100          24.750                  
                                                                                
  23309037.322                       -2873.600          26.250                  
                                                                                
 21  5 17  2 36 35.4446340  0  7G 1G 7G 8G 9G21G22G27
  21417747.150                        3205.300          24.000                  
                                                                                
  20977062.430   110235287.5121       2337.746          29.250                  
                                                                                
  21123758.674   111006062.040       -1773.619          33.500                  
                                                                                
  23060368.487                       -1839.250          24.500                  
                                                                                
  20545922.202                         909.200          23.250                  
                                                                                
  24907274.401                        1843.800          16.000                  
                                                                                
  23309651.312   122493044.2151      -2880.511          28.500                  
                                                                                
 21  5 17  2 36 36.4446341  0  8G 1G 4G 7G 8G 9G16G21G27
  21417138.156                        3205.500          24.250                  
                                                                                
  23765218.514                       -2673.300          16.250                  
                                                                                
  20976642.005   110233107.442        2339.747          30.500                  
                                                                                
  21124117.410   111007993.020       -1770.915          35.500                  
                                                                                
  23060722.127   121184912.0011      -1839.442          30.000                  
                                                                                
  24336082.113                       -1517.450          18.750                  
                                                                                
  20545695.743                         903.650          24.000                  
                                                                                
  23310221.702                       -2869.800          31.750                  
                                                                                
 21  5 17  2 36 37.4446342  0  7G 1G 4G 7G 8G 9G21G27
  21416515.125                        3207.450          22.250                  
                                                                                
  23765727.799   124889742.4101      -2679.125          26.500                  
                                                                                
  20976228.829   110230925.1071       2341.580          30.250                  
                                                                                
  21124489.091   111009920.367       -1765.009          36.250                  
                                                                                
  23061106.398                       -1838.600          22.250                  
                                                                                
  20545569.468                         886.950          32.500                  
                                                                                
  23310807.734                       -2850.000          28.750                  
                                                                                
 21  5 17  2 36 38.4446343  0  4G 1G 8G21G27
  21415976.638                        3191.550          25.500                  
                                                                                
  21124851.480   111011838.4731      -1758.303          31.500                  
                                                                                
  20545431.804   107966972.6741        884.870          31.500                  
                                                                                
  23311385.674   122502157.6691      -2841.242          30.750                  
                                                                                
 21  5 17  2 36 39.4446344  0  5G 1G 4G 8G21G27
  21415405.843                        3179.550          22.500                  
                                                                                
  23766852.870                       -2692.200          20.000                  
                                                                                
  21125216.936   111013751.960       -1755.792          32.250                  
                                                                                
  20545287.014   107966245.3021        883.188          28.250                  
                                                                                
  23311952.891   122505154.1931      -2839.015          30.000                  
                                                                                
 21  5 17  2 36 40.4446346  0  5G 1G 8G 9G21G27
  21414872.184                        3184.700          24.250                  
                                                                                
  21125605.139   111015822.5521      -1752.892          31.250                  
                                                                                
  23062295.297                       -1844.750          17.500                  
                                                                                
  20545180.559   107965678.9791        882.973          34.000                  
                                                                                
  23312547.950   122508311.3741      -2840.903          29.750                  
                                                                                
 21  5 17  2 36 41.4446347  0  5G 1G 8G21G27G30
  21414296.534                        3192.900          23.500                  
                                                                                
  21125999.019                       -1758.650          25.000                  
                                                                                
  20545042.906   107964951.241         885.937          39.500                  
                                                                                
  23313112.411   122511309.1631      -2840.925          27.750                  
                                                                                
  23991363.168                        3510.350          16.000                  
                                                                                
 21  5 17  2 36 42.4446348  0  4G 1G 8G21G27
  21413710.898                        3177.250          27.250                  
                                                                                
  21126341.240   111019672.5001      -1749.480          32.000                  
                                                                                
  20544908.458   107964221.728         885.609          37.500                  
                                                                                
  23313682.175   122514307.7441      -2841.479          27.750                  
                                                                                
 21  5 17  2 36 43.4446349  0  5G 1G 8G21G27G30
  21413132.207   112526769.1741       3174.610          29.500                  
                                                                                
  21126699.101   111021580.129       -1748.342          35.500                  
                                                                                
  20544766.864   107963495.815         883.587          38.000                  
                                                                                
  23314252.589   122517308.6781      -2843.064          28.750                  
                                                                                
  23990138.583                        3500.500          20.500                  
                                                                                
 21  5 17  2 36 44.4446350  0  5G 1G 8G16G21G27
  21412551.050   112523751.6741       3171.978          30.000                  
                                                                                
  21127065.588   111023483.008       -1746.300          37.500                  
                                                                                
  24338727.500                       -1522.650          16.250                  
                                                                                
  20544628.800   107962768.532         882.318          37.250                  
                                                                                
  23314833.727   122520302.5681      -2836.614          31.000                  
                                                                                
 21  5 17  2 36 45.4446352  0  4G 1G 8G21G27
  21412014.987   112520897.1061       3170.573          30.750                  
                                                                                
  21127449.887   111025544.587       -1743.926          36.750                  
                                                                                
  20544522.639   107962202.967         881.925          38.500                  
                                                                                
  23315418.288                       -2835.600          25.000                  
                                                                                
 21  5 17  2 36 46.4446353  0  5G 1G 8G21G22G27
  21411434.858   112517884.494        3169.070          32.000                  
                                                                                
  21127812.606   111027444.407       -1742.829          38.750                  
                                                                                
  20544380.807   107961478.306         881.262          39.000                  
                                                                                
  24903796.646                        1794.500          18.250                  
                                                                                
  23315996.258   122526387.1181      -2831.919          29.000                  
                                                                                
 21  5 17  2 36 47.4446354  0  5G 1G 8G21G22G27
  21410863.245   112514873.139        3170.109          31.000                  
                                                                                
  21128175.745   111029346.317       -1744.177          35.500                  
                                                                                
  20544251.088   107960755.329         881.539          37.500                  
                                                                                
  24903487.351                        1795.550          18.000                  
                                                                                
  23316562.357   122529380.7891      -2834.075          26.000                  
                                                                                
 21  5 17  2 36 48.4446355  0  5G 1G 8G21G22G27
  21410293.577   112511857.6491       3171.620          31.000                  
                                                                                
  21128535.134   111031246.178       -1744.553          36.250                  
                                                                                
  20544108.324   107960028.560         882.577          37.250                  
                                                                                
  24903176.404                        1796.200          17.500                  
                                                                                
  23317109.416                       -2840.000          25.250                  
                                                                                
 21  5 17  2 36 49.4446357  0  5G 1G 8G21G22G27
  21409750.543   112509004.0181       3169.040          29.250                  
                                                                                
  21128926.853   111033308.706       -1745.064          36.500                  
                                                                                
  20544004.786   107959464.741         879.914          38.000                  
                                                                                
  24902891.192                        1797.400          16.750                  
                                                                                
  23317749.063                       -2832.800          23.250                  
                                                                                
 21  5 17  2 36 50.4446358  0  5G 1G 8G21G22G27
  21409175.857   112505995.2511       3164.727          28.500                  
                                                                                
  21129289.018   111035211.380       -1744.508          35.750                  
                                                                                
  20543863.300   107958744.4161        876.342          34.750                  
                                                                                
  24902587.518                        1798.250          16.250                  
                                                                                
  23318303.395   122538510.5781      -2829.398          28.750                  
                                                                                
 21  5 17  2 36 51.4446359  0  5G 1G 8G21G22G27
  21408595.738   112502989.7081       3161.798          25.750                  
                                                                                
  21129651.147   111037112.553       -1742.272          34.000                  
                                                                                
  20543731.970   107958025.7961        876.308          35.500                  
                                                                                
  24902270.617                        1797.350          16.000                  
                                                                                
  23318882.873   122541496.7591      -2826.794          30.750                  
                                                                                
 21  5 17  2 36 52.4446360  0  5G 1G 8G16G21G27
  21408019.272                        3167.900          25.250                  
                                                                                
  21130016.030   111039010.3231      -1739.637          31.750                  
                                                                                
  24341288.512                       -1489.950          16.000                  
                                                                                
  20543591.703   107957306.6011        879.049          34.000                  
                                                                                
  23319436.326   122544478.6501      -2822.901          32.750                  
                                                                                
 21  5 17  2 36 53.4446362  0  5G 1G 8G21G22G27
  21407496.104                        3176.650          24.500                  
                                                                                
  21130406.629   111041064.7461      -1744.513          26.500                  
                                                                                
  20543484.347   107956742.0981        877.463          33.500                  
                                                                                
  24901675.234                        1795.700          14.250                  
                                                                                
  23320033.782   122547619.8701      -2831.854          28.250                  
                                                                                
 21  5 17  2 36 54.4446363  0  6G 1G 4G 8G21G22G27
  21406905.810                        3176.950          23.250                  
                                                                                
  23775239.547                       -2656.100          23.500                  
                                                                                
  21130763.979   111042970.2481      -1748.557          31.500                  
                                                                                
  20543346.140   107956024.022         878.335          35.750                  
                                                                                
  24901366.146                        1792.650          14.250                  
                                                                                
  23320596.789   122550612.5951      -2837.221          29.500                  
                                                                                
 21  5 17  2 36 55.4446364  0  6G 1G 4G 8G16G21G27
  21406363.781                        3182.950          24.750                  
                                                                                
  23775787.863                       -2658.450          21.500                  
                                                                                
  21131143.212   111044878.7831      -1752.909          33.000                  
                                                                                
  24342255.905                       -1509.000          19.250                  
                                                                                
  20543225.919   107955302.6731        879.485          33.000                  
                                                                                
  23321175.984   122553609.7211      -2841.411          32.500                  
                                                                                
 21  5 17  2 36 56.4446365  0  4G 1G 8G21G27
  21405759.613                        3184.050          22.750                  
                                                                                
  21131499.280   111046791.1561      -1756.592          31.500                  
                                                                                
  20543070.541   107954579.2161        879.155          35.000                  
                                                                                
  23321739.508   122556611.3001      -2846.142          30.250                  
                                                                                
 21  5 17  2 36 57.4446366  0  4G 1G 8G21G27
  21405191.844   112485042.1751       3183.253          26.000                  
                                                                                
  21131862.965   111048704.8781      -1755.082          34.750                  
                                                                                
  20542934.472                         886.250          29.500                  
                                                                                
  23322315.147   122559617.0881      -2847.385          28.750                  
                                                                                
 21  5 17  2 36 58.4446368  0  4G 1G 8G21G27
  21404648.175                        3195.550          26.500                  
                                                                                
  21132248.953   111050771.9491      -1754.201          33.250                  
                                                                                
  20542829.999                         884.100          35.250                  
                                                                                
  23322914.586   122562773.7981      -2843.095          29.250                  
                                                                                
 21  5 17  2 36 59.4446369  0  6G 1G 7G 8G16G21G27
  21404081.622                        3181.400          26.000                  
                                                                                
  20967264.524                        2305.400          19.750                  
                                                                                
  21132618.952   111052683.7101      -1753.760          35.000                  
                                                                                
  24343603.633                       -1521.000          18.000                  
                                                                                
  20542687.353   107952550.1221        881.450          34.500                  
                                                                                
  23323479.451   122565774.7031      -2844.162          29.000                  
                                                                                
 21  5 17  2 37  0.4446370  0  4G 1G 8G21G27
  21403511.422                        3173.350          27.500                  
                                                                                
  21132979.907   111054598.133       -1754.919          34.000                  
                                                                                
  20542550.054   107951832.7891        874.660          35.000                  
                                                                                
  23324065.850   122568778.4691      -2843.757          28.000                  
                                                                                
 21  5 17  2 37  1.4446371  0  5G 1G 8G16G21G27
  21402921.671                        3172.550          23.750                  
                                                                                
  21133347.993   111056510.5951      -1756.074          34.500                  
                                                                                
  24344229.845                       -1518.000          19.250                  
                                                                                
  20542414.787   107951115.4991        873.812          40.250                  
                                                                                
  23324627.302   122571779.9041      -2845.490          28.250                  
                                                                                
 21  5 17  2 37  2.4446372  0  4G 1G 8G21G27
  21402363.733   112470179.6171       3171.583          27.750                  
                                                                                
  21133705.621   111058426.310       -1756.792          32.250                  
                                                                                
  20542284.653   107950401.2481        872.407          35.500                  
                                                                                
  23325198.682   122574783.8321      -2844.360          31.000                  
                                                                                
 21  5 17  2 37  3.4446373  0  4G 1G 8G21G27
  21401778.099   112467164.2181       3169.772          28.500                  
                                                                                
  21134067.931   111060338.0591      -1756.398          32.750                  
                                                                                
  20542146.609   107949684.8681        872.089          36.500                  
                                                                                
  23325775.043   122577782.8121      -2842.923          32.750                  
                                                                                
 21  5 17  2 37  4.4446375  0  4G 1G 8G21G27
  21401224.650   112464310.7191       3167.243          27.750                  
                                                                                
  21134471.419   111062410.564       -1758.183          33.500                  
                                                                                
  20542040.750   107949128.7041        869.859          34.000                  
                                                                                
  23326368.600   122580941.9931      -2845.953          30.500                  
                                                                                
 21  5 17  2 37  5.4446376  0  4G 1G 8G21G27
  21400663.255                        3181.200          23.750                  
                                                                                
  21134825.291   111064327.322       -1757.923          33.500                  
                                                                                
  20541908.359   107948417.5851        868.955          36.000                  
                                                                                
  23326937.123   122583945.0911      -2843.404          30.750                  
                                                                                
 21  5 17  2 37  6.4446377  0  5G 1G 4G 8G21G27
  21400120.918                        3198.950          24.500                  
                                                                                
  23781839.788                       -2661.650          23.250                  
                                                                                
  21135197.621   111066242.925       -1757.463          31.500                  
                                                                                
  20541766.844   107947706.6081        869.308          33.250                  
                                                                                
  23327508.515   122586945.7651      -2843.315          34.500                  
                                                                                
 21  5 17  2 37  7.4446378  0  4G 1G 8G21G27
  21399540.269                        3175.200          22.500                  
                                                                                
  21135562.217   111068158.8161      -1756.211          31.500                  
                                                                                
  20541630.788   107946995.4971        870.607          36.000                  
                                                                                
  23328088.963   122589948.053       -2841.919          32.000                  
                                                                                
 21  5 17  2 37  8.4446379  0  5G 1G 8G16G21G27
  21398940.021                        3171.500          25.000                  
                                                                                
  21135921.605   111070069.3911      -1753.681          32.250                  
                                                                                
  24346470.388                       -1510.050          15.750                  
                                                                                
  20541494.318   107946280.386         871.309          38.000                  
                                                                                
  23328651.909   122592944.1531      -2839.776          33.000                  
                                                                                
 21  5 17  2 37  9.4446381  0  4G 1G 8G21G27
  21398412.900   112449418.6271       3168.115          30.000                  
                                                                                
  21136321.742   111072137.182       -1753.571          34.250                  
                                                                                
  20541391.104   107945724.203         869.719          37.750                  
                                                                                
  23329251.108   122596097.8991      -2837.853          34.500                  
                                                                                
 21  5 17  2 37 10.4446382  0  5G 1G 8G16G21G27
  21397829.720   112446408.3381       3167.127          31.000                  
                                                                                
  21136678.111   111074047.073       -1751.789          34.750                  
                                                                                
  24347182.825                       -1522.250          20.500                  
                                                                                
  20541251.017   107945011.470         870.027          37.000                  
                                                                                
  23329817.932   122599091.1501      -2835.493          34.000                  
                                                                                
 21  5 17  2 37 11.4446383  0  4G 1G 8G21G27
  21397251.269   112443400.8591       3164.220          32.000                  
                                                                                
  21137047.904   111075956.934       -1751.686          36.000                  
                                                                                
  20541115.359   107944300.448         868.486          35.250                  
                                                                                
  23330391.284   122602083.2931      -2832.752          35.000                  
                                                                                
 21  5 17  2 37 12.4446384  0  4G 1G 8G21G27
  21396681.289   112440395.689        3163.872          32.750                  
                                                                                
  21137415.076   111077866.730       -1749.267          36.000                  
                                                                                
  20540989.672   107943590.780         868.667          35.250                  
                                                                                
  23330963.214   122605073.017       -2829.109          33.000                  
                                                                                
 21  5 17  2 37 13.4446385  0  5G 1G 8G16G21G27
  21396104.840   112437390.8161       3161.133          30.250                  
                                                                                
  21137773.379   111079773.158       -1749.269          36.000                  
                                                                                
  24348115.905                       -1496.550          17.500                  
                                                                                
  20540849.121   107942880.3081        866.757          34.750                  
                                                                                
  23331527.475   122608058.712       -2828.377          34.500                  
                                                                                
 21  5 17  2 37 14.4446387  0  4G 1G 8G21G27
  21395567.983   112434544.1781       3161.296          30.500                  
                                                                                
  21138162.281   111081837.292       -1750.296          37.500                  
                                                                                
  20540735.571   107942328.311         866.224          36.750                  
                                                                                
  23332126.531   122611201.757       -2829.378          36.000                  
                                                                                
 21  5 17  2 37 15.4446388  0  4G 1G 8G21G27
  21394990.953   112431541.605        3162.550          30.750                  
                                                                                
  21138530.197   111083747.362       -1751.523          37.000                  
                                                                                
  20540603.133   107941621.257         866.335          35.250                  
                                                                                
  23332693.210   122614190.846       -2831.016          35.500                  
                                                                                
 21  5 17  2 37 16.4446389  0  4G 1G 8G21G27
  21394428.304   112428536.432        3159.984          29.000                  
                                                                                
  21138891.508   111085657.287       -1755.771          37.500                  
                                                                                
  20540475.783   107940912.857         862.867          35.000                  
                                                                                
  23333267.973   122617180.257       -2835.454          34.500                  
                                                                                
 21  5 17  2 37 17.4446390  0  5G 1G 8G16G21G27
  21393858.479   112425535.200        3159.386          30.000                  
                                                                                
  21139257.636   111087573.206       -1759.604          36.750                  
                                                                                
  24349428.081                       -1516.950          17.000                  
                                                                                
  20540336.760   107940209.5011        860.900          33.500                  
                                                                                
  23333828.966   122620175.792       -2839.371          34.750                  
                                                                                
 21  5 17  2 37 18.4446391  0  4G 1G 8G21G27
  21393283.342   112422531.035        3163.156          30.250                  
                                                                                
  21139623.247   111089491.140       -1762.565          37.500                  
                                                                                
  20540209.513   107939505.5021        861.690          33.500                  
                                                                                
  23334408.929   122623173.515       -2842.914          32.500                  
                                                                                
